city,street,price_pln,size_m2,rooms,floor,detail_url,image_url,year_built,market,heating,total_floors,intercom,basement,furnished,elevator,parking_space,gated_property,balcony,terrace,garden,longitude,latitude,distance_from_center,distance_from_airport,distance_from_train_station,distance_from_park,distance_from_university,distance_from_mall
Gdańsk,Mostek,875000,40.0,2,2.0,https://www.morizon.pl/oferta/sprzedaz-mieszkanie-gdansk-srodmiescie-mostek-40m2-mzn2045844381,https://img1.staticmorizon.com.pl/thumb/aHR0cDovL21lZGlhLmRvbXkucGwvaW1nL3pkamVjaWEvbzEzNzQ3NC8zL28xMzc0NzRfbXNfNDYxMjU5XzEuanBnI3Y9MV8zNzY4OTEyODA5/3x2_xs:fill_and_crop/mieszkanie-na-sprzedaz-gdansk-srodmiescie-40-m.jpg,2024,wtórny,-1,4,1,0,0,1,0,0,1,0,0,54.3516195,18.6754656,4988.06,4999.32,,4999.08,4995.63,
Gdańsk,Hołdu Pruskiego,750000,54.0,3,0.0,https://www.morizon.pl/oferta/sprzedaz-mieszkanie-gdansk-oliwa-holdu-pruskiego-54m2-mzn2046081191,https://img1.staticmorizon.com.pl/thumb/aHR0cDovL21lZGlhLmRvbXkucGwvaW1nL3pkamVjaWEvZzg3OTI3L2EvZzg3OTI3X21zX0dXMjgxOTUzXzEuanBnI3Y9MV8zNzk4NzUyMDUx/3x2_xs:fill_and_crop/mieszkanie-na-sprzedaz-gdansk-oliwa-54-m.jpg,1890,wtórny,Gazowe,2,1,1,0,0,1,0,0,0,1,54.4106045,18.5701735,5001.28,5012.54,,5012.29,5008.84,
Gdańsk,Wielkopolska,500700,43.0,2,0.0,https://www.morizon.pl/oferta/sprzedaz-mieszkanie-gdansk-ujescisko-lostowice-wielkopolska-43m2-mzn2044874458,https://img1.staticmorizon.com.pl/thumb/aHR0cDovL21lZGlhLmRvbXkucGwvaW1nL2Rld2Vsb3Blcnp5LzkzNzlfd2l6dWFsaXphY2phNS5qcGcjdj0xNzU3NzM4NzM2/3x2_xs:fill_and_crop/mieszkanie-w-inwestycji-quercus-gdansk-43-m.jpg,2025,pierwotny,-1,-1,0,0,0,0,1,0,0,0,0,54.3111909,18.58993292,4994.29,5005.54,,5005.31,5001.86,
Gdańsk,Wielkopolska,506900,43.0,2,0.0,https://www.morizon.pl/oferta/sprzedaz-mieszkanie-gdansk-ujescisko-lostowice-wielkopolska-43m2-mzn2044874466,https://img1.staticmorizon.com.pl/thumb/aHR0cDovL21lZGlhLmRvbXkucGwvaW1nL2Rld2Vsb3Blcnp5LzkzNzlfd2l6dWFsaXphY2phNi5qcGcjdj0xNzU3NzM4NzM2/3x2_xs:fill_and_crop/mieszkanie-w-inwestycji-quercus-gdansk-43-m.jpg,2025,pierwotny,-1,-1,0,0,0,0,1,0,0,0,0,54.3111909,18.58993292,4994.29,5005.54,,5005.31,5001.86,
Gdańsk,Skiby,649900,46.0,2,1.0,https://www.morizon.pl/oferta/sprzedaz-mieszkanie-gdansk-stogi-skiby-46m2-mzn2046166416,https://img1.staticmorizon.com.pl/thumb/aHR0cDovL21lZGlhLmRvbXkucGwvaW1nL3pkamVjaWEvZ3JhNjM3MDkvMy9ncmE2MzcwOV9tc18yMzYxMDY3Nl8yLmpwZyN2PTFfMzc4MTgwMzczNg==/3x2_xs:fill_and_crop/mieszkanie-na-sprzedaz-gdansk-stogi-46-m.jpg,2025,pierwotny,Miejskie,3,1,0,0,1,1,0,1,0,0,54.3622,18.7087,4985.38,4996.65,,4996.4,4992.95,
Gdańsk,Obrońców Wybrzeża,1899000,65.0,3,11.0,https://www.morizon.pl/oferta/sprzedaz-mieszkanie-gdansk-przymorze-obroncow-wybrzeza-65m2-mzn2045743213,https://img1.staticmorizon.com.pl/thumb/aHR0cDovL21lZGlhLmRvbXkucGwvaW1nL3pkamVjaWEvemdsb3N6ZW5pYS9mL3pnbG9zemVuaWFfbXNfZ3JhdGthLTQyMTAzMjkxXzEuanBnI3Y9MV8zNzU2NzU2NTI4/3x2_xs:fill_and_crop/mieszkanie-na-sprzedaz-65-m.jpg,-1,wtórny,-1,17,0,0,1,0,1,0,0,0,0,54.410843,18.596654,4998.72,5009.98,,5009.73,5006.29,
Gdańsk,Osiek,920000,62.0,3,3.0,https://www.morizon.pl/oferta/sprzedaz-mieszkanie-gdansk-srodmiescie-osiek-62m2-mzn2045874907,https://img1.staticmorizon.com.pl/thumb/aHR0cDovL21lZGlhLmRvbXkucGwvaW1nL3pkamVjaWEveW91cnBvaW50Mi8zL3lvdXJwb2ludDJfbXNfV0g2OTUwNDdfMS5qcGcjdj0xXzM4MDY5MTU4ODE=/3x2_xs:fill_and_crop/mieszkanie-na-sprzedaz-gdansk-srodmiescie-62-m.jpg,1940,wtórny,Co Miejskie,3,0,1,0,0,0,0,0,0,0,54.356175,18.6559612,4990.19,5001.45,,5001.2,4997.75,
Gdańsk,Chmielna,966000,46.0,3,0.0,https://www.morizon.pl/oferta/sprzedaz-mieszkanie-gdansk-srodmiescie-chmielna-46m2-mzn2045307389,https://img1.staticmorizon.com.pl/thumb/aHR0cDovL21lZGlhLmRvbXkucGwvaW1nL3pkamVjaWEveW91cnBvaW50Mi80L3lvdXJwb2ludDJfbXNfV0gzNjk5MzNfMS5qcGcjdj0xXzM4MDAxNDI0NDE=/3x2_xs:fill_and_crop/mieszkanie-na-sprzedaz-gdansk-srodmiescie-46-m.jpg,2021,wtórny,Co Miejskie,4,0,0,0,1,1,0,0,0,1,54.34329,18.65539,4989.58,5000.84,,5000.6,4997.15,
Gdańsk,Mariacka,939000,24.0,1,1.0,https://www.morizon.pl/oferta/sprzedaz-mieszkanie-gdansk-srodmiescie-mariacka-24m2-mzn2045432418,https://img1.staticmorizon.com.pl/thumb/aHR0cDovL21lZGlhLmRvbXkucGwvaW1nL3pkamVjaWEveW91cnBvaW50Mi9hL3lvdXJwb2ludDJfbXNfV0g1NjAxMDFfMS5qcGcjdj0xXzM3OTA4OTE1MzI=/3x2_xs:fill_and_crop/kawalerka-na-sprzedaz-gdansk-srodmiescie-24-m.jpg,1950,wtórny,Co Miejskie,4,0,1,0,0,1,0,0,0,0,54.34978,18.65512,4989.94,5001.2,,5000.95,4997.51,
Gdańsk,Śródmieście,1650000,82.0,4,1.0,https://www.morizon.pl/oferta/sprzedaz-mieszkanie-gdansk-srodmiescie-82m2-mzn2044610752,https://img1.staticmorizon.com.pl/thumb/aHR0cDovL21lZGlhLmRvbXkucGwvaW1nL3pkamVjaWEveW91cnBvaW50Mi80L3lvdXJwb2ludDJfbXNfV0g5MjI2MjgzNThfMS5qcGcjdj0xXzM3OTA4ODk1NTc=/3x2_xs:fill_and_crop/mieszkanie-na-sprzedaz-gdansk-srodmiescie-82-m.jpg,2019,wtórny,Co Miejskie,4,0,0,0,1,1,0,0,1,1,54.34211,18.65654,4989.41,5000.67,,5000.43,4996.98,
Gdańsk,Mariana Seredyńskiego,925560,68.0,3,3.0,https://www.morizon.pl/oferta/sprzedaz-mieszkanie-gdansk-srodmiescie-mariana-seredynskiego-68m2-mzn2044861858,https://img1.staticmorizon.com.pl/thumb/aHR0cDovL21lZGlhLmRvbXkucGwvaW1nL3pkamVjaWEveW91cnBvaW50Mi9iL3lvdXJwb2ludDJfbXNfV0g3NTE5MTczODBfMS5qcGcjdj0xXzM4MDAxNjIxNjM=/3x2_xs:fill_and_crop/mieszkanie-na-sprzedaz-gdansk-srodmiescie-68-m.jpg,1920,wtórny,Gazowe,3,0,0,0,0,0,0,0,0,0,54.34965,18.66693,4988.79,5000.05,,4999.8,4996.36,
Gdańsk,Toruńska,1590000,81.0,4,5.0,https://www.morizon.pl/oferta/sprzedaz-mieszkanie-gdansk-srodmiescie-torunska-81m2-mzn2044388740,https://img1.staticmorizon.com.pl/thumb/aHR0cDovL21lZGlhLmRvbXkucGwvaW1nL3pkamVjaWEveW91cnBvaW50Mi84L3lvdXJwb2ludDJfbXNfV0gzMzUwMDMwODVfMS5qcGcjdj0xXzM3OTA4ODk4OTc=/3x2_xs:fill_and_crop/mieszkanie-na-sprzedaz-gdansk-srodmiescie-81-m.jpg,2021,wtórny,Co Miejskie,5,1,0,0,1,0,1,1,0,0,54.34178,18.65376,4989.67,5000.92,,5000.68,4997.23,
Gdańsk,Chmielna,2499000,56.0,2,1.0,https://www.morizon.pl/oferta/sprzedaz-mieszkanie-gdansk-srodmiescie-chmielna-56m2-mzn2044338465,https://img1.staticmorizon.com.pl/thumb/aHR0cDovL21lZGlhLmRvbXkucGwvaW1nL3pkamVjaWEveW91cnBvaW50Mi83L3lvdXJwb2ludDJfbXNfV0g0MTU2NjY1MjJfMS5qcGcjdj0xXzM3OTA4ODk1OTk=/3x2_xs:fill_and_crop/mieszkanie-na-sprzedaz-gdansk-srodmiescie-56-m.jpg,2019,wtórny,Co Miejskie,6,1,0,0,1,0,1,0,0,0,54.34872,18.65785,4989.62,5000.88,,5000.64,4997.19,
Gdańsk,Łąkowa,779000,30.0,1,1.0,https://www.morizon.pl/oferta/sprzedaz-mieszkanie-pomorskie-gdanski-lakowa-30m2-mzn2044397028,https://img1.staticmorizon.com.pl/thumb/aHR0cDovL21lZGlhLmRvbXkucGwvaW1nL3pkamVjaWEveW91cnBvaW50Mi8wL3lvdXJwb2ludDJfbXNfV0g1MjkyODE0NzVfMS5qcGcjdj0xXzM3OTA4ODk5NDE=/3x2_xs:fill_and_crop/kawalerka-na-sprzedaz-wislinka-lakowa-30-m.jpg,2023,wtórny,Co Miejskie,2,0,0,0,0,1,0,1,1,0,54.340406,18.802501,4975.19,4986.45,,4986.2,4982.75,
Gdańsk,Opacka,2142000,68.0,3,0.0,https://www.morizon.pl/oferta/sprzedaz-mieszkanie-gdansk-oliwa-opacka-68m2-mzn2046246200,https://img1.staticmorizon.com.pl/thumb/aHR0cDovL21lZGlhLmRvbXkucGwvaW1nL3pkamVjaWEvemdsb3N6ZW5pYS81L3pnbG9zemVuaWFfbXNfZ3JhdGthLTQzOTk3NTE3XzEuanBnI3Y9MV8zODA3ODA4Njg2/3x2_xs:fill_and_crop/mieszkanie-na-sprzedaz-68-m.jpg,-1,wtórny,-1,2,0,0,1,0,1,0,0,0,0,54.41302,18.563943,5002.0,5013.26,,5013.02,5009.57,
Gdańsk,Władysława IV,679000,49.0,2,3.0,https://www.morizon.pl/oferta/sprzedaz-mieszkanie-gdansk-nowy-port-wladyslawa-iv-49m2-mzn2045894088,https://img1.staticmorizon.com.pl/thumb/aHR0cDovL21lZGlhLmRvbXkucGwvaW1nL3pkamVjaWEvemdsb3N6ZW5pYS9iL3pnbG9zemVuaWFfbXNfZ3JhdGthLTQyNjkzNDExXzEuanBnI3Y9MV8zNzQ0MTUwODMx/3x2_xs:fill_and_crop/mieszkanie-na-sprzedaz-49-m.jpg,1960,wtórny,-1,3,1,1,0,0,0,1,1,0,0,54.40048355,18.67606588,4990.5,5001.77,,5001.51,4998.07,
Gdańsk,Czarny Dwór,1150000,45.0,2,5.0,https://www.morizon.pl/oferta/sprzedaz-mieszkanie-gdansk-przymorze-czarny-dwor-45m2-mzn2046121177,https://img1.staticmorizon.com.pl/thumb/aHR0cDovL21lZGlhLmRvbXkucGwvaW1nL3pkamVjaWEvemdsb3N6ZW5pYS82L3pnbG9zemVuaWFfbXNfZ3JhdGthLTQzNDI1MDMxXzEuanBnI3Y9MV8zNzcwMTI4MDIy/3x2_xs:fill_and_crop/mieszkanie-na-sprzedaz-45-m.jpg,-1,wtórny,-1,12,0,0,0,0,0,0,0,0,0,54.408966,18.607312,4997.59,5008.86,,5008.61,5005.16,
Gdańsk,Bolesława Krzywoustego,1299000,56.0,2,0.0,https://www.morizon.pl/oferta/sprzedaz-mieszkanie-gdansk-przymorze-boleslawa-krzywoustego-56m2-mzn2045840690,https://img1.staticmorizon.com.pl/thumb/aHR0cDovL21lZGlhLmRvbXkucGwvaW1nL3pkamVjaWEvemdsb3N6ZW5pYS9lL3pnbG9zemVuaWFfbXNfZ3JhdGthLTQyNDQ3MDgzXzEuanBnI3Y9MV8zNzgyNzUwODk3/3x2_xs:fill_and_crop/mieszkanie-na-sprzedaz-56-m.jpg,2012,wtórny,-1,4,1,0,1,1,1,1,0,1,0,54.41225447,18.57935379,5000.47,5011.73,,5011.48,5008.04,
Gdańsk,Partyzantów,1881000,99.0,3,16.0,https://www.morizon.pl/oferta/sprzedaz-mieszkanie-gdansk-wrzeszcz-partyzantow-99m2-mzn2046062155,https://img1.staticmorizon.com.pl/thumb/aHR0cDovL21lZGlhLmRvbXkucGwvaW1nL3pkamVjaWEvemdsb3N6ZW5pYS9mL3pnbG9zemVuaWFfbXNfZ3JhdGthLTQyNzc2MzU1XzEuanBnI3Y9MV8zNzU3ODc0ODU1/3x2_xs:fill_and_crop/mieszkanie-na-sprzedaz-99-m.jpg,-1,wtórny,-1,16,0,0,0,0,0,0,0,0,0,54.37884197,18.59674329,4997.08,5008.34,,5008.09,5004.65,
Gdańsk,Życzliwa,690000,38.0,2,3.0,https://www.morizon.pl/oferta/sprzedaz-mieszkanie-gdansk-jasien-zyczliwa-38m2-mzn2045746398,https://img1.staticmorizon.com.pl/thumb/aHR0cDovL21lZGlhLmRvbXkucGwvaW1nL3pkamVjaWEveW91cnBvaW50Mi85L3lvdXJwb2ludDJfbXNfV0g2ODM3NjZfMS5qcGcjdj0xXzM3OTA5ODQ1MTQ=/3x2_xs:fill_and_crop/mieszkanie-na-sprzedaz-gdansk-jasien-38-m.jpg,2023,wtórny,Co Miejskie,3,0,0,0,1,1,0,1,0,0,54.34545,18.52998,5001.85,5013.1,,5012.86,5009.42,
Gdańsk,Klimatyczna,419900,30.0,2,1.0,https://www.morizon.pl/oferta/sprzedaz-mieszkanie-gdansk-wyspa-sobieszewska-klimatyczna-30m2-mzn2044175731,https://img1.staticmorizon.com.pl/thumb/aHR0cDovL21lZGlhLmRvbXkucGwvaW1nL3pkamVjaWEvbmRrLzMvbmRrX21zX1NTUTIyOTA3OF8xLmpwZyN2PTFfMzc3NDE3NTg1NQ==/3x2_xs:fill_and_crop/mieszkanie-na-sprzedaz-gdansk-wyspa-sobieszewska-30-m.jpg,2025,pierwotny,Co Własne,2,0,0,0,1,1,0,1,0,0,54.33547,18.90798,4964.72,4976.0,,4975.73,4972.29,
Gdańsk,Alfonsa Flisykowskiego,799000,70.0,3,0.0,https://www.morizon.pl/oferta/sprzedaz-mieszkanie-gdansk-jasien-alfonsa-flisykowskiego-70m2-mzn2046214305,https://img1.staticmorizon.com.pl/thumb/aHR0cDovL21lZGlhLmRvbXkucGwvaW1nL3pkamVjaWEvZ21nNDYyNDYxL2QvZ21nNDYyNDYxX21zX0NQMTMzNzQyXzEuanBnI3Y9MV8zNzkzNDM3NzY0/3x2_xs:fill_and_crop/mieszkanie-na-sprzedaz-gdansk-jasien-70-m.jpg,2020,wtórny,Co Miejskie,4,1,0,0,1,1,0,0,1,1,54.3227556,18.5620185,4997.59,5008.84,,5008.6,5005.16,
Gdańsk,Władysława Jagiełły,399000,28.0,1,1.0,https://www.morizon.pl/oferta/sprzedaz-mieszkanie-pomorskie-gdansk-wladyslawa-jagielly-28m2-mzn2046213348,https://img1.staticmorizon.com.pl/thumb/aHR0cDovL21lZGlhLmRvbXkucGwvaW1nL3pkamVjaWEvYmFybm5ldC8zL2Jhcm5uZXRfbXNfMzMzNDdfMC5qcGcjdj0xXzM3OTMzNTkwMzU=/3x2_xs:fill_and_crop/kawalerka-na-sprzedaz-gdansk-wladyslawa-jagielly-28-m.jpg,-1,wtórny,Miejskie,4,0,0,0,0,0,0,0,0,0,54.30014395,18.61739743,4991.07,5002.32,,5002.08,4998.63,
Gdańsk,Niepołomicka,779000,57.0,3,1.0,https://www.morizon.pl/oferta/sprzedaz-mieszkanie-gdansk-ujescisko-lostowice-niepolomicka-57m2-mzn2046245495,https://img1.staticmorizon.com.pl/thumb/aHR0cDovL21lZGlhLmRvbXkucGwvaW1nL3pkamVjaWEvemdsb3N6ZW5pYS8xL3pnbG9zemVuaWFfbXNfZ3JhdGthLTQzOTkzODE1XzEuanBnI3Y9MV8zODA3MzU4Nzk4/3x2_xs:fill_and_crop/mieszkanie-na-sprzedaz-57-m.jpg,2022,wtórny,-1,4,1,0,0,1,1,1,1,0,0,54.314648,18.593575,4994.12,5005.37,,5005.13,5001.68,
Gdańsk,Generała Władysława Andersa,1590000,70.0,3,1.0,https://www.morizon.pl/oferta/sprzedaz-mieszkanie-gdansk-jasien-generala-wladyslawa-andersa-70m2-mzn2046253928,https://img1.staticmorizon.com.pl/thumb/aHR0cDovL21lZGlhLmRvbXkucGwvaW1nL3pkamVjaWEvemdsb3N6ZW5pYS8wL3pnbG9zemVuaWFfbXNfZ3JhdGthLTQ0MDIwMjkxXzEuanBnI3Y9MV8zODA4NzA2NzI4/3x2_xs:fill_and_crop/mieszkanie-na-sprzedaz-70-m.jpg,2021,wtórny,-1,3,0,0,1,1,1,0,1,1,0,54.351124,18.551485,5000.05,5011.31,,5011.07,5007.62,
Gdańsk,Prof. Mariana Osińskiego,488717,39.0,2,2.0,https://www.morizon.pl/oferta/sprzedaz-mieszkanie-gdansk-jasien-osinskiego-39m2-mzn2046099923,https://img1.staticmorizon.com.pl/thumb/aHR0cDovL21lZGlhLmRvbXkucGwvaW1nL2Rld2Vsb3Blcnp5LzYxN193aXp1YWxpemFjamEyLTEuanBnI3Y9MTc1NTg1NDEwNA==/3x2_xs:fill_and_crop/mieszkanie-w-inwestycji-wiszace-ogrody-gdansk-39-m.jpg,2026,pierwotny,Co Miejskie,5,0,0,0,0,0,0,0,0,0,54.34867784,18.53625297,5001.41,5012.66,,5012.42,5008.97,
Gdańsk,Hoża,749000,54.0,3,1.0,https://www.morizon.pl/oferta/sprzedaz-mieszkanie-gdansk-stogi-hoza-54m2-mzn2046207613,https://img1.staticmorizon.com.pl/thumb/aHR0cDovL21lZGlhLmRvbXkucGwvaW1nL3pkamVjaWEvemdsb3N6ZW5pYS9iL3pnbG9zemVuaWFfbXNfZ3JhdGthLTQzODMwMzk5XzEuanBnI3Y9MV8zNzkyMTY0NDEw/3x2_xs:fill_and_crop/mieszkanie-na-sprzedaz-54-m.jpg,-1,wtórny,-1,4,0,1,0,0,0,0,0,0,0,54.360722,18.714331,4984.76,4996.03,,4995.78,4992.33,
Gdańsk,Prof. Mariana Osińskiego,926697,80.0,4,5.0,https://www.morizon.pl/oferta/sprzedaz-mieszkanie-gdansk-jasien-osinskiego-80m2-mzn2045874873,https://img1.staticmorizon.com.pl/thumb/aHR0cDovL21lZGlhLmRvbXkucGwvaW1nL3pkamVjaWEvaG9zc2EvOS9ob3NzYV9tc19XTyUyNTJGUDMlMjUyRjcwXzIuanBnI3Y9MV8zNzYzMzA0Mjk5/3x2_xs:fill_and_crop/mieszkanie-w-inwestycji-wiszace-ogrody-gdansk-80-m.jpg,2026,pierwotny,-1,7,0,0,0,1,0,0,0,1,0,54.34867784,18.53625297,5001.41,5012.66,,5012.42,5008.97,
Gdańsk,Jaskółcza,804450,46.0,2,1.0,https://www.morizon.pl/oferta/sprzedaz-mieszkanie-gdansk-srodmiescie-jaskolcza-46m2-mzn2044344081,https://img1.staticmorizon.com.pl/thumb/aHR0cDovL21lZGlhLmRvbXkucGwvaW1nL2Rld2Vsb3Blcnp5LzExMzkxX3dpenVhbGl6YWNqYTQuanBnI3Y9MTc1MjgxNjE3MA==/3x2_xs:fill_and_crop/mieszkanie-w-inwestycji-jaskolcza-gdansk-46-m.jpg,2026,pierwotny,-1,-1,0,0,0,0,0,0,1,0,0,54.34275553,18.65989208,4989.12,5000.38,,5000.13,4996.69,
Gdańsk,Jaskółcza,1457760,91.0,4,1.0,https://www.morizon.pl/oferta/sprzedaz-mieszkanie-gdansk-srodmiescie-jaskolcza-91m2-mzn2044344080,https://img1.staticmorizon.com.pl/thumb/aHR0cDovL21lZGlhLmRvbXkucGwvaW1nL2Rld2Vsb3Blcnp5LzExMzkxX3dpenVhbGl6YWNqYTQuanBnI3Y9MTc1MjgxNjE3MA==/3x2_xs:fill_and_crop/mieszkanie-w-inwestycji-jaskolcza-gdansk-91-m.jpg,2026,pierwotny,-1,-1,0,0,0,0,0,0,1,0,0,54.34275553,18.65989208,4989.12,5000.38,,5000.13,4996.69,
Gdańsk,Ujeścisko-Łostowice,490000,40.0,2,3.0,https://www.morizon.pl/oferta/sprzedaz-mieszkanie-gdansk-ujescisko-lostowice-kazimierza-porebskiego-40m2-mzn2045239168,https://img1.staticmorizon.com.pl/thumb/aHR0cDovL21lZGlhLmRvbXkucGwvaW1nL3pkamVjaWEvemdsb3N6ZW5pYS84L3pnbG9zemVuaWFfbXNfZ3JhdGthLTQwMTc5MTI3XzEuanBnI3Y9MV8zNjE5MjM4MjI1/3x2_xs:fill_and_crop/mieszkanie-na-sprzedaz-40-m.jpg,2003,wtórny,-1,3,1,1,0,0,0,1,0,0,0,54.32041079,18.57761302,4995.96,5007.21,,5006.97,5003.52,
Gdańsk,Śliwkowa,894108,71.0,4,2.0,https://www.morizon.pl/oferta/sprzedaz-mieszkanie-gdansk-ujescisko-lostowice-sliwkowa-71m2-mzn2043096355,https://img1.staticmorizon.com.pl/thumb/aHR0cDovL21lZGlhLmRvbXkucGwvaW1nL2Rld2Vsb3Blcnp5LzExMDYzX3dpenVhbGl6YWNqYTEuanBnI3Y9MTc1Njk3OTE2NQ==/3x2_xs:fill_and_crop/mieszkanie-w-inwestycji-rosa-residence-gdansk-71-m.jpg,2025,pierwotny,-1,2,0,0,0,1,0,0,1,0,0,54.33660604,18.57525522,4997.01,5008.26,,5008.02,5004.58,
Gdańsk,Powstańców Wielkopolskich,1399000,75.0,4,2.0,https://www.morizon.pl/oferta/sprzedaz-mieszkanie-gdansk-zaspa-powstancow-wielkopolskich-75m2-mzn2046236815,https://img1.staticmorizon.com.pl/thumb/aHR0cDovL21lZGlhLmRvbXkucGwvaW1nL3pkamVjaWEvYm5wcnp5MTIvOC9ibnByenkxMl9tc18yNjIyJTI1MkYxNjg2MSUyNTJGT01TXzEuanBnI3Y9MV8zODA4NTk4MDA3/3x2_xs:fill_and_crop/mieszkanie-na-sprzedaz-gdansk-zaspa-75-m.jpg,2016,wtórny,C.O. Z SIECI MIEJSKIEJ,5,1,1,0,1,1,0,1,0,0,54.3987758,18.615946,4996.24,5007.5,,5007.25,5003.8,
Gdańsk,Hołdu Pruskiego,750000,54.0,3,0.0,https://www.morizon.pl/oferta/sprzedaz-mieszkanie-gdansk-oliwa-holdu-pruskiego-54m2-mzn2046081191,https://img1.staticmorizon.com.pl/thumb/aHR0cDovL21lZGlhLmRvbXkucGwvaW1nL3pkamVjaWEvZzg3OTI3L2EvZzg3OTI3X21zX0dXMjgxOTUzXzEuanBnI3Y9MV8zNzk4NzUyMDUx/3x2_xs:fill_and_crop/mieszkanie-na-sprzedaz-gdansk-oliwa-54-m.jpg,1890,wtórny,Gazowe,2,1,1,0,0,1,0,0,0,1,54.4106045,18.5701735,5001.28,5012.54,,5012.29,5008.84,
Gdańsk,Śliwkowa,1036980,82.0,4,2.0,https://www.morizon.pl/oferta/sprzedaz-mieszkanie-gdansk-ujescisko-lostowice-sliwkowa-82m2-mzn2044518144,https://img1.staticmorizon.com.pl/thumb/aHR0cDovL21lZGlhLmRvbXkucGwvaW1nL2Rld2Vsb3Blcnp5LzExMDYzX3dpenVhbGl6YWNqYTQuanBnI3Y9MTc1Njk3OTE2NQ==/3x2_xs:fill_and_crop/mieszkanie-w-inwestycji-rosa-residence-gdansk-82-m.jpg,2025,pierwotny,-1,2,0,0,0,1,0,0,0,0,0,54.33660604,18.57525522,4997.01,5008.26,,5008.02,5004.58,
Gdańsk,Świętokrzyska,630000,46.0,2,0.0,https://www.morizon.pl/oferta/sprzedaz-mieszkanie-gdansk-ujescisko-lostowice-swietokrzyska-46m2-mzn2046203952,https://img1.staticmorizon.com.pl/thumb/aHR0cDovL21lZGlhLmRvbXkucGwvaW1nL3pkamVjaWEvemdsb3N6ZW5pYS84L3pnbG9zemVuaWFfbXNfZ3JhdGthLTQzODA0OTg5XzEuanBnI3Y9MV8zNzkwODQwMTMw/3x2_xs:fill_and_crop/mieszkanie-na-sprzedaz-46-m.jpg,-1,wtórny,-1,2,0,0,0,0,1,0,0,0,0,54.321636,18.60163,4993.69,5004.94,,5004.7,5001.26,
Gdańsk,Poznańska,699000,38.0,3,1.0,https://www.morizon.pl/oferta/sprzedaz-mieszkanie-gdansk-przymorze-poznanska-38m2-mzn2045865045,https://img1.staticmorizon.com.pl/thumb/aHR0cDovL21lZGlhLmRvbXkucGwvaW1nL3pkamVjaWEvemdsb3N6ZW5pYS9kL3pnbG9zemVuaWFfbXNfZ3JhdGthLTQyNTU2ODY5XzEuanBnI3Y9MV8zODAyNDYzNTQw/3x2_xs:fill_and_crop/mieszkanie-na-sprzedaz-38-m.jpg,1958,wtórny,-1,3,1,1,1,0,1,1,0,0,0,54.41367839,18.57979255,5000.5,5011.76,,5011.51,5008.07,
Gdańsk,Franciszka Rakoczego,847784,56.0,1,6.0,https://www.morizon.pl/oferta/sprzedaz-mieszkanie-gdansk-piecki-migowo-franciszka-rakoczego-56m2-mzn2045874973,https://img1.staticmorizon.com.pl/thumb/aHR0cDovL21lZGlhLmRvbXkucGwvaW1nL2Rld2Vsb3Blcnp5LzEwNzQ3X3dpenVhbGl6YWNqYTkuanBnI3Y9MTc1NTg1NDExNg==/3x2_xs:fill_and_crop/mieszkanie-w-inwestycji-centralpark-gdansk-56-m.jpg,2026,pierwotny,-1,17,0,0,0,0,0,0,0,0,1,54.35856939,18.58099222,4997.57,5008.83,,5008.59,5005.14,
Gdańsk,Franciszka Rakoczego,969736,69.0,4,2.0,https://www.morizon.pl/oferta/sprzedaz-mieszkanie-gdansk-piecki-migowo-franciszka-rakoczego-69m2-mzn2044467518,https://img1.staticmorizon.com.pl/thumb/aHR0cDovL21lZGlhLmRvbXkucGwvaW1nL2Rld2Vsb3Blcnp5LzEwNzQ3X3dpenVhbGl6YWNqYTMuanBnI3Y9MTc1NTg1NDExNg==/3x2_xs:fill_and_crop/mieszkanie-w-inwestycji-centralpark-gdansk-69-m.jpg,2026,pierwotny,-1,17,0,0,0,0,0,0,0,1,1,54.35856939,18.58099222,4997.57,5008.83,,5008.59,5005.14,
Gdańsk,Eugeniusza Węgrzyna,810000,53.0,3,1.0,https://www.morizon.pl/oferta/sprzedaz-mieszkanie-gdansk-jasien-eugeniusza-wegrzyna-53m2-mzn2046237814,https://img1.staticmorizon.com.pl/thumb/aHR0cDovL21lZGlhLmRvbXkucGwvaW1nL3pkamVjaWEvemdsb3N6ZW5pYS84L3pnbG9zemVuaWFfbXNfZ3JhdGthLTQzOTU1NTExXzEuanBnI3Y9MV8zNzk4NzYwOTk2/3x2_xs:fill_and_crop/mieszkanie-na-sprzedaz-53-m.jpg,-1,wtórny,-1,4,0,0,0,0,1,0,0,0,0,54.333538,18.567864,4997.57,5008.82,,5008.58,5005.14,
Gdańsk,Świętego Ducha,990000,63.0,2,2.0,https://www.morizon.pl/oferta/sprzedaz-mieszkanie-gdansk-srodmiescie-sw-ducha-63m2-mzn2045726069,https://img1.staticmorizon.com.pl/thumb/aHR0cDovL21lZGlhLmRvbXkucGwvaW1nL3pkamVjaWEvYm5tdWx0aTEvOC9ibm11bHRpMV9tc19NSDY5MzQ4OV8xLmpwZyN2PTFfMzc5NjY4MzI3Nw==/3x2_xs:fill_and_crop/mieszkanie-na-sprzedaz-gdansk-srodmiescie-63-m.jpg,1956,wtórny,Co Miejskie,3,0,1,0,0,0,0,0,0,0,54.35047,18.65259,4990.22,5001.48,,5001.23,4997.79,
Gdańsk,Kokoszki,499000,90.0,4,,https://www.morizon.pl/oferta/sprzedaz-mieszkanie-gdansk-kokoszki-90m2-mzn2046243350,https://img1.staticmorizon.com.pl/thumb/aHR0cDovL21lZGlhLmRvbXkucGwvaW1nL3pkamVjaWEvemdsb3N6ZW5pYS85L3pnbG9zemVuaWFfbXNfZ3JhdGthLTQzOTgxNzczXzEuanBnI3Y9MV8zODAyNDMwOTMy/3x2_xs:fill_and_crop/mieszkanie-na-sprzedaz-90-m.jpg,-1,wtórny,-1,-1,0,0,0,0,1,0,0,0,0,54.354099,18.491961,5005.98,5017.23,,5016.99,5013.54,
Gdańsk,Leśna Góra,632268,34.0,2,1.0,https://www.morizon.pl/oferta/sprzedaz-mieszkanie-gdansk-bretowo-lesna-gora-34m2-mzn2045452388,https://img1.staticmorizon.com.pl/thumb/aHR0cDovL21lZGlhLmRvbXkucGwvaW1nL2Rld2Vsb3Blcnp5LzExNTgwX3dpenVhbGl6YWNqYTIuanBnI3Y9MTc1NDYzMzcyOQ==/3x2_xs:fill_and_crop/mieszkanie-w-inwestycji-lesna-gora-gdansk-34-m.jpg,2027,pierwotny,-1,-1,0,0,0,0,0,0,1,0,0,54.37583326,18.56055379,5000.43,5011.69,,5011.45,5008.0,
Gdańsk,Leśna Góra,738975,41.0,2,4.0,https://www.morizon.pl/oferta/sprzedaz-mieszkanie-gdansk-bretowo-lesna-gora-41m2-mzn2045452417,https://img1.staticmorizon.com.pl/thumb/aHR0cDovL21lZGlhLmRvbXkucGwvaW1nL2Rld2Vsb3Blcnp5LzExNTgwX3dpenVhbGl6YWNqYTQuanBnI3Y9MTc1NDYzMzcyOQ==/3x2_xs:fill_and_crop/mieszkanie-w-inwestycji-lesna-gora-gdansk-41-m.jpg,2027,pierwotny,-1,-1,0,0,0,0,0,0,1,0,0,54.37583326,18.56055379,5000.43,5011.69,,5011.45,5008.0,
Gdańsk,Leszczyńskich,737840,32.0,1,1.0,https://www.morizon.pl/oferta/sprzedaz-mieszkanie-gdansk-zaspa-leszczynskich-2-32m2-mzn2045553744,https://img1.staticmorizon.com.pl/thumb/aHR0cDovL21lZGlhLmRvbXkucGwvaW1nL2Rld2Vsb3Blcnp5LzExNzgxX3dpenVhbGl6YWNqYTEuanBnI3Y9MTc1NzMzMjUzOA==/3x2_xs:fill_and_crop/mieszkanie-w-inwestycji-leszczynskich-2-gdansk-32-m.jpg,2026,pierwotny,-1,5,0,0,0,0,0,0,1,0,0,54.39530109,18.61680508,4995.98,5007.24,,5006.99,5003.54,
Gdańsk,Sienna Grobla,620460,34.0,1,0.0,https://www.morizon.pl/oferta/sprzedaz-mieszkanie-gdansk-srodmiescie-sienna-grobla-34m2-mzn2045641513,https://img1.staticmorizon.com.pl/thumb/aHR0cDovL21lZGlhLmRvbXkucGwvaW1nL2Rld2Vsb3Blcnp5LzEwNjk1X3dpenVhbGl6YWNqYTIuanBnI3Y9MTc1NzY4NDk3MQ==/3x2_xs:fill_and_crop/mieszkanie-w-inwestycji-nadmotlawie-apartments-gdansk-34-m.jpg,2022,pierwotny,-1,6,0,0,0,0,0,0,1,0,0,54.35539335,18.66808891,4988.97,5000.23,,4999.98,4996.54,
Gdańsk,Sienna Grobla,1434690,75.0,3,1.0,https://www.morizon.pl/oferta/sprzedaz-mieszkanie-gdansk-srodmiescie-sienna-grobla-75m2-mzn2045641653,https://img1.staticmorizon.com.pl/thumb/aHR0cDovL21lZGlhLmRvbXkucGwvaW1nL2Rld2Vsb3Blcnp5LzEwNjk1X3dpenVhbGl6YWNqYTIuanBnI3Y9MTc1NzY4NDk3MQ==/3x2_xs:fill_and_crop/mieszkanie-w-inwestycji-nadmotlawie-apartments-gdansk-75-m.jpg,2022,pierwotny,-1,6,0,0,0,0,0,0,1,0,0,54.35539335,18.66808891,4988.97,5000.23,,4999.98,4996.54,
Gdańsk,Leszczyńskich,2922330,100.0,4,0.0,https://www.morizon.pl/oferta/sprzedaz-mieszkanie-gdansk-zaspa-leszczynskich-2-100m2-mzn2045553708,https://img1.staticmorizon.com.pl/thumb/aHR0cDovL21lZGlhLmRvbXkucGwvaW1nL2Rld2Vsb3Blcnp5LzExNzgxX3dpenVhbGl6YWNqYTIuanBnI3Y9MTc1NzMzMjUzOA==/3x2_xs:fill_and_crop/mieszkanie-w-inwestycji-leszczynskich-2-gdansk-100-m.jpg,2026,pierwotny,-1,5,0,0,0,0,0,0,0,0,0,54.39530109,18.61680508,4995.98,5007.24,,5006.99,5003.54,
Gdańsk,Twarda,630000,54.0,3,4.0,https://www.morizon.pl/oferta/sprzedaz-mieszkanie-gdansk-mlyniska-twarda-54m2-mzn2046103594,https://img1.staticmorizon.com.pl/thumb/aHR0cDovL21lZGlhLmRvbXkucGwvaW1nL3pkamVjaWEvbmRrLzEvbmRrX21zX1NTUTY1OTY1OF8xLmpwZyN2PTFfMzgwMTQ4NDQ4MA==/3x2_xs:fill_and_crop/mieszkanie-na-sprzedaz-gdansk-mlyniska-54-m.jpg,1980,wtórny,Co Miejskie,4,1,1,0,1,1,0,1,0,0,54.375668,18.6324149,4993.46,5004.72,,5004.47,5001.03,
Gdańsk,Letnicka,1018184,74.0,3,1.0,https://www.morizon.pl/oferta/sprzedaz-mieszkanie-gdansk-letnica-letnicka-3-74m2-mzn2045704019,https://img1.staticmorizon.com.pl/thumb/aHR0cDovL21lZGlhLmRvbXkucGwvaW1nL2Rld2Vsb3Blcnp5LzExODMzX3dpenVhbGl6YWNqYTEuanBnI3Y9MTc1Njk3OTU1OA==/3x2_xs:fill_and_crop/mieszkanie-w-inwestycji-porto-ijk-gdansk-74-m.jpg,2027,pierwotny,-1,5,0,0,0,0,0,0,1,0,0,54.40212764,18.6500752,4993.1,5004.37,,5004.11,5000.67,
Gdańsk,Letnicka,552600,30.0,1,1.0,https://www.morizon.pl/oferta/sprzedaz-mieszkanie-gdansk-letnica-letnicka-3-30m2-mzn2045703802,https://img1.staticmorizon.com.pl/thumb/aHR0cDovL21lZGlhLmRvbXkucGwvaW1nL2Rld2Vsb3Blcnp5LzExODMzX3dpenVhbGl6YWNqYTMuanBnI3Y9MTc1Njk3OTU1OA==/3x2_xs:fill_and_crop/mieszkanie-w-inwestycji-porto-ijk-gdansk-30-m.jpg,2027,pierwotny,-1,5,0,0,0,0,0,0,0,0,0,54.40212764,18.6500752,4993.1,5004.37,,5004.11,5000.67,
Gdańsk,Bogumiła Kobieli,701920,34.0,1,0.0,https://www.morizon.pl/oferta/sprzedaz-mieszkanie-gdansk-brzezno-kobieli-4-34m2-mzn2044561509,https://img1.staticmorizon.com.pl/thumb/aHR0cDovL21lZGlhLmRvbXkucGwvaW1nL2Rld2Vsb3Blcnp5LzExNDU1X3dpenVhbGl6YWNqYTMuanBnI3Y9MTc1Njk3OTY4MQ==/3x2_xs:fill_and_crop/mieszkanie-w-inwestycji-kobieli-4-gdansk-34-m.jpg,2026,pierwotny,-1,4,0,0,0,0,0,0,0,0,0,54.40183411,18.63637447,4994.41,5005.68,,5005.43,5001.98,
Gdańsk,Bogumiła Kobieli,1718650,92.0,4,0.0,https://www.morizon.pl/oferta/sprzedaz-mieszkanie-gdansk-brzezno-kobieli-4-92m2-mzn2044561514,https://img1.staticmorizon.com.pl/thumb/aHR0cDovL21lZGlhLmRvbXkucGwvaW1nL2Rld2Vsb3Blcnp5LzExNDU1X3dpenVhbGl6YWNqYTMuanBnI3Y9MTc1Njk3OTY4MQ==/3x2_xs:fill_and_crop/mieszkanie-w-inwestycji-kobieli-4-gdansk-92-m.jpg,2026,pierwotny,-1,4,0,0,0,0,0,0,0,0,0,54.40183411,18.63637447,4994.41,5005.68,,5005.43,5001.98,
Gdańsk,Mostek,875000,40.0,2,2.0,https://www.morizon.pl/oferta/sprzedaz-mieszkanie-gdansk-srodmiescie-mostek-40m2-mzn2045844381,https://img1.staticmorizon.com.pl/thumb/aHR0cDovL21lZGlhLmRvbXkucGwvaW1nL3pkamVjaWEvbzEzNzQ3NC8zL28xMzc0NzRfbXNfNDYxMjU5XzEuanBnI3Y9MV8zNzY4OTEyODA5/3x2_xs:fill_and_crop/mieszkanie-na-sprzedaz-gdansk-srodmiescie-40-m.jpg,2024,wtórny,-1,4,1,0,0,1,0,0,1,0,0,54.3516195,18.6754656,4988.06,4999.32,,4999.08,4995.63,
Gdańsk,Powstańców Warszawskich,699000,64.0,4,4.0,https://www.morizon.pl/oferta/sprzedaz-mieszkanie-gdansk-suchanino-powstancow-warszawskich-64m2-mzn2046238304,https://img1.staticmorizon.com.pl/thumb/aHR0cDovL21lZGlhLmRvbXkucGwvaW1nL3pkamVjaWEvbzEzNzQ3NC9hL28xMzc0NzRfbXNfNjY4MTQ3XzEuanBnI3Y9MV8zNzk4ODI1NjI1/3x2_xs:fill_and_crop/mieszkanie-na-sprzedaz-gdansk-suchanino-64-m.jpg,1978,wtórny,-1,4,1,1,0,1,0,0,1,0,0,54.3539,18.61385,4994.15,5005.41,,5005.16,5001.72,
Gdańsk,Stępkarska,2282500,91.0,4,7.0,https://www.morizon.pl/oferta/sprzedaz-mieszkanie-gdansk-srodmiescie-stepkarska-91m2-mzn2045894474,https://img1.staticmorizon.com.pl/thumb/aHR0cDovL21lZGlhLmRvbXkucGwvaW1nL2Rld2Vsb3Blcnp5LzExODM4X3dpenVhbGl6YWNqYTYuanBnI3Y9MTc1NzY4NTEyNQ==/3x2_xs:fill_and_crop/mieszkanie-w-inwestycji-nowa-walowa-gdansk-91-m.jpg,2027,pierwotny,-1,7,0,0,0,0,0,0,0,0,0,54.3574253,18.66242409,4989.62,5000.88,,5000.64,4997.19,
Gdańsk,Stępkarska,2765340,102.0,4,7.0,https://www.morizon.pl/oferta/sprzedaz-mieszkanie-gdansk-srodmiescie-stepkarska-102m2-mzn2045894473,https://img1.staticmorizon.com.pl/thumb/aHR0cDovL21lZGlhLmRvbXkucGwvaW1nL2Rld2Vsb3Blcnp5LzExODM4X3dpenVhbGl6YWNqYTEuanBnI3Y9MTc1NzY4NTEyNQ==/3x2_xs:fill_and_crop/mieszkanie-w-inwestycji-nowa-walowa-gdansk-102-m.jpg,2027,pierwotny,-1,7,0,0,0,0,0,0,0,0,0,54.3574253,18.66242409,4989.62,5000.88,,5000.64,4997.19,
Gdańsk,Chmielna,2200000,83.0,3,6.0,https://www.morizon.pl/oferta/sprzedaz-mieszkanie-gdansk-srodmiescie-chmielna-83m2-mzn2044899972,https://img1.staticmorizon.com.pl/thumb/aHR0cDovL21lZGlhLmRvbXkucGwvaW1nL3pkamVjaWEvbjEyNzEzOS82L24xMjcxMzlfbXNfTUc0OTA5OTFfMS5qcGcjdj0xXzM3NDM1MjI0MTM=/3x2_xs:fill_and_crop/mieszkanie-na-sprzedaz-gdansk-srodmiescie-83-m.jpg,2024,wtórny,Co Miejskie,7,1,0,0,1,1,1,1,0,0,54.34819,18.65783,4989.6,5000.86,,5000.61,4997.16,
Gdańsk,Aleja Jana Pawła II,860000,49.0,2,0.0,https://www.morizon.pl/oferta/sprzedaz-mieszkanie-gdansk-zaspa-aleja-jana-pawla-ii-49m2-mzn2046207208,https://img1.staticmorizon.com.pl/thumb/aHR0cDovL21lZGlhLmRvbXkucGwvaW1nL3pkamVjaWEvZ21nNDYyNDQ5LzMvZ21nNDYyNDQ5X21zXzk5OTMxOTYxMV8xLmpwZyN2PTFfMzc5NTg5NDQ5OQ==/3x2_xs:fill_and_crop/mieszkanie-na-sprzedaz-gdansk-zaspa-49-m.jpg,-1,wtórny,Miejskie,10,0,0,0,1,1,0,0,0,0,54.3970455,18.6003247,4997.66,5008.92,,5008.67,5005.23,
Gdańsk,Starowiejska,696000,46.0,2,6.0,https://www.morizon.pl/oferta/sprzedaz-mieszkanie-gdansk-letnica-starowiejska-46m2-mzn2045746128,https://img1.staticmorizon.com.pl/thumb/aHR0cDovL21lZGlhLmRvbXkucGwvaW1nL3pkamVjaWEvbWJuLzcvbWJuX21zXzUwMTQxOV8xLmpwZyN2PTFfMzc4MDc2NjQ2Mg==/3x2_xs:fill_and_crop/mieszkanie-na-sprzedaz-gdansk-letnica-46-m.jpg,2025,wtórny,Co Miejskie,18,1,0,0,1,1,1,1,0,0,54.3947715,18.6469624,4993.03,5004.29,,5004.04,5000.59,
Gdańsk,Lęborska,899999,47.0,2,0.0,https://www.morizon.pl/oferta/sprzedaz-mieszkanie-gdansk-przymorze-leborska-47m2-mzn2046210088,https://img1.staticmorizon.com.pl/thumb/aHR0cDovL21lZGlhLmRvbXkucGwvaW1nL3pkamVjaWEvbzEyMjQ1Ni84L28xMjI0NTZfbXNfQUc3MDMwNDBfMS5qcGcjdj0xXzM3OTU3ODg5NDY=/3x2_xs:fill_and_crop/mieszkanie-na-sprzedaz-gdansk-przymorze-47-m.jpg,2016,wtórny,Co Miejskie,6,0,0,0,1,1,0,0,0,1,54.4043454,18.581939,4999.82,5011.08,,5010.83,5007.38,
Gdańsk,Elewów,690000,62.0,3,0.0,https://www.morizon.pl/oferta/sprzedaz-mieszkanie-gdansk-matarnia-elewow-62m2-mzn2046158946,https://img1.staticmorizon.com.pl/thumb/aHR0cDovL21lZGlhLmRvbXkucGwvaW1nL3pkamVjaWEvYXJ0ZmxhdC84L2FydGZsYXRfbXNfMjY4NTU0XzEuanBnI3Y9MV8zODAwMTI5NDgz/3x2_xs:fill_and_crop/mieszkanie-na-sprzedaz-gdansk-matarnia-62-m.jpg,1990,wtórny,-1,3,0,1,0,0,1,0,1,1,1,54.3795974,18.5056172,5005.95,5017.2,,5016.96,5013.52,
Gdańsk,Storczykowa,549000,55.0,2,2.0,https://www.morizon.pl/oferta/sprzedaz-mieszkanie-gdansk-kokoszki-storczykowa-55m2-mzn2045853724,https://img1.staticmorizon.com.pl/thumb/aHR0cDovL21lZGlhLmRvbXkucGwvaW1nL3pkamVjaWEvd2V4LzYvd2V4X21zX1dFMDM5MjZfMS5qcGcjdj0xXzM4MDg4MjYxOTI=/3x2_xs:fill_and_crop/mieszkanie-na-sprzedaz-gdansk-kokoszki-55-m.jpg,2003,wtórny,Kotłownia lokalna,3,1,1,0,0,1,0,1,0,0,54.35549,18.509773,5004.32,5015.57,,5015.33,5011.89,
Gdańsk,Pilotów,1423869,86.0,4,3.0,https://www.morizon.pl/oferta/sprzedaz-mieszkanie-gdansk-zaspa-pilotow-21-86m2-mzn2042015943,https://img1.staticmorizon.com.pl/thumb/aHR0cDovL21lZGlhLmRvbXkucGwvaW1nL2Rld2Vsb3Blcnp5LzExMDA2X3dpenVhbGl6YWNqYTEuanBnI3Y9MTc1NTUwNTczMg==/3x2_xs:fill_and_crop/mieszkanie-w-inwestycji-pilotow-21-gdansk-86-m.jpg,2023,pierwotny,-1,5,0,0,0,1,0,0,0,0,0,54.3964051,18.6017672,4997.49,5008.75,,5008.5,5005.06,
Gdańsk,Pilotów,1573635,98.0,4,1.0,https://www.morizon.pl/oferta/sprzedaz-mieszkanie-gdansk-zaspa-pilotow-21-98m2-mzn2042015930,https://img1.staticmorizon.com.pl/thumb/aHR0cDovL21lZGlhLmRvbXkucGwvaW1nL2Rld2Vsb3Blcnp5LzExMDA2X3dpenVhbGl6YWNqYTYuanBnI3Y9MTc1NTUwNTczMg==/3x2_xs:fill_and_crop/mieszkanie-w-inwestycji-pilotow-21-gdansk-98-m.jpg,2023,pierwotny,-1,5,0,0,0,0,0,0,0,0,0,54.3964051,18.6017672,4997.49,5008.75,,5008.5,5005.06,
Gdańsk,Aleja Jana Pawła II,860000,49.0,2,0.0,https://www.morizon.pl/oferta/sprzedaz-mieszkanie-gdansk-zaspa-aleja-jana-pawla-ii-49m2-mzn2046207208,https://img1.staticmorizon.com.pl/thumb/aHR0cDovL21lZGlhLmRvbXkucGwvaW1nL3pkamVjaWEvZ21nNDYyNDQ5LzMvZ21nNDYyNDQ5X21zXzk5OTMxOTYxMV8xLmpwZyN2PTFfMzc5NTg5NDQ5OQ==/3x2_xs:fill_and_crop/mieszkanie-na-sprzedaz-gdansk-zaspa-49-m.jpg,-1,wtórny,Miejskie,10,0,0,0,1,1,0,0,0,0,54.3970455,18.6003247,4997.66,5008.92,,5008.67,5005.23,
Gdańsk,Hołdu Pruskiego,750000,54.0,3,0.0,https://www.morizon.pl/oferta/sprzedaz-mieszkanie-gdansk-oliwa-holdu-pruskiego-54m2-mzn2046081191,https://img1.staticmorizon.com.pl/thumb/aHR0cDovL21lZGlhLmRvbXkucGwvaW1nL3pkamVjaWEvZzg3OTI3L2EvZzg3OTI3X21zX0dXMjgxOTUzXzEuanBnI3Y9MV8zNzk4NzUyMDUx/3x2_xs:fill_and_crop/mieszkanie-na-sprzedaz-gdansk-oliwa-54-m.jpg,1890,wtórny,Gazowe,2,1,1,0,0,1,0,0,0,1,54.4106045,18.5701735,5001.28,5012.54,,5012.29,5008.84,
Gdańsk,Profesora Stefana Hausbrandta,799000,51.0,2,6.0,https://www.morizon.pl/oferta/sprzedaz-mieszkanie-gdansk-piecki-migowo-prof-stefana-hausbrandta-51m2-mzn2046138290,https://img1.staticmorizon.com.pl/thumb/aHR0cDovL21lZGlhLmRvbXkucGwvaW1nL3pkamVjaWEvbzEzNzQ3NC83L28xMzc0NzRfbXNfMTIwMDE2XzEuanBnI3Y9MV8zODA4NTE4MTc2/3x2_xs:fill_and_crop/mieszkanie-na-sprzedaz-gdansk-piecki-migowo-51-m.jpg,-1,wtórny,Co Miejskie,8,1,0,0,1,1,0,1,0,0,54.34937,18.58764,4996.46,5007.71,,5007.47,5004.03,
Gdańsk,Bernarda Filarskiego,1250000,65.0,3,4.0,https://www.morizon.pl/oferta/sprzedaz-mieszkanie-gdansk-letnica-bernarda-filarskiego-65m2-mzn2045956587,https://img1.staticmorizon.com.pl/thumb/aHR0cDovL21lZGlhLmRvbXkucGwvaW1nL3pkamVjaWEvbW9yemUvZi9tb3J6ZV9tc19QQU43NDg3ODlfMS5qcGcjdj0xXzM4MDg1MTkyMjY=/3x2_xs:fill_and_crop/mieszkanie-na-sprzedaz-gdansk-letnica-65-m.jpg,2024,wtórny,Co Miejskie,4,1,1,0,1,1,0,0,0,0,54.4022091,18.6499129,4993.12,5004.39,,5004.13,5000.69,
Gdańsk,Alfonsa Flisykowskiego,770000,60.0,3,1.0,https://www.morizon.pl/oferta/sprzedaz-mieszkanie-gdansk-jasien-alfonsa-flisykowskiego-60m2-mzn2045912271,https://img1.staticmorizon.com.pl/thumb/aHR0cDovL21lZGlhLmRvbXkucGwvaW1nL3pkamVjaWEvcmFuZGFsbGludi9mL3JhbmRhbGxpbnZfbXNfUkFOREFMTDgwMjY1NV8xLmpwZyN2PTFfMzc4Mzk4MTMyNw==/3x2_xs:fill_and_crop/mieszkanie-na-sprzedaz-gdansk-jasien-60-m.jpg,2018,wtórny,-1,3,0,0,1,1,1,0,1,0,0,54.3220835,18.5613169,4997.62,5008.87,,5008.64,5005.19,
Gdańsk,Mostek,875000,40.0,2,2.0,https://www.morizon.pl/oferta/sprzedaz-mieszkanie-gdansk-srodmiescie-mostek-40m2-mzn2045844381,https://img1.staticmorizon.com.pl/thumb/aHR0cDovL21lZGlhLmRvbXkucGwvaW1nL3pkamVjaWEvbzEzNzQ3NC8zL28xMzc0NzRfbXNfNDYxMjU5XzEuanBnI3Y9MV8zNzY4OTEyODA5/3x2_xs:fill_and_crop/mieszkanie-na-sprzedaz-gdansk-srodmiescie-40-m.jpg,2024,wtórny,-1,4,1,0,0,1,0,0,1,0,0,54.3516195,18.6754656,4988.06,4999.32,,4999.08,4995.63,
Gdańsk,Pilotów,515000,31.0,1,10.0,https://www.morizon.pl/oferta/sprzedaz-mieszkanie-gdansk-zaspa-pilotow-31m2-mzn2045878341,https://img1.staticmorizon.com.pl/thumb/aHR0cDovL21lZGlhLmRvbXkucGwvaW1nL3pkamVjaWEvbzEzNzQ3NC9jL28xMzc0NzRfbXNfMTUwNDc2XzEuanBnI3Y9MV8zNzg3NTU5MzQ5/3x2_xs:fill_and_crop/kawalerka-na-sprzedaz-gdansk-zaspa-31-m.jpg,1970,wtórny,-1,10,0,1,0,1,1,0,1,0,0,54.3942911,18.5893124,4998.59,5009.85,,5009.6,5006.16,
Gdańsk,Chłopska,675000,43.0,2,4.0,https://www.morizon.pl/oferta/sprzedaz-mieszkanie-gdansk-przymorze-chlopska-43m2-mzn2045354716,https://img1.staticmorizon.com.pl/thumb/aHR0cDovL21lZGlhLmRvbXkucGwvaW1nL3pkamVjaWEvcmFuZGFsbGludi9jL3JhbmRhbGxpbnZfbXNfUkFOREFMTDI0MTQ3NF8xLmpwZyN2PTFfMzY3NTgzNDA3Mw==/3x2_xs:fill_and_crop/mieszkanie-na-sprzedaz-gdansk-przymorze-43-m.jpg,-1,wtórny,-1,4,0,1,0,0,0,0,1,0,0,54.40688,18.59245,4998.93,5010.19,,5009.94,5006.49,
Gdańsk,Obrońców Wybrzeża,799000,33.0,2,12.0,https://www.morizon.pl/oferta/sprzedaz-mieszkanie-gdansk-przymorze-obroncow-wybrzeza-33m2-mzn2046215096,https://img1.staticmorizon.com.pl/thumb/aHR0cDovL21lZGlhLmRvbXkucGwvaW1nL3pkamVjaWEvbjEyOTE1Mi9hL24xMjkxNTJfbXNfT0Y2OTc2OTQxOTlfMS5qcGcjdj0xXzM4MDY4OTc1OTU=/3x2_xs:fill_and_crop/mieszkanie-na-sprzedaz-gdansk-przymorze-33-m.jpg,2020,wtórny,Co Miejskie,17,1,0,0,1,0,0,0,0,0,54.4127572,18.5891779,4999.54,5010.81,,5010.56,5007.11,
Gdańsk,Aleja Generała Józefa Hallera,660000,28.0,1,3.0,https://www.morizon.pl/oferta/sprzedaz-mieszkanie-gdansk-wrzeszcz-gen-jozefa-hallera-28m2-mzn2046203963,https://img1.staticmorizon.com.pl/thumb/aHR0cDovL21lZGlhLmRvbXkucGwvaW1nL3pkamVjaWEvYm5ob21lL2YvYm5ob21lX21zXzEzNDQwMV8xLmpwZyN2PTFfMzc5MDg0ODE2Mw==/3x2_xs:fill_and_crop/kawalerka-na-sprzedaz-gdansk-wrzeszcz-28-m.jpg,-1,wtórny,Co Miejskie,5,1,0,0,1,1,1,1,0,0,54.3942517,18.6213985,4995.48,5006.74,,5006.49,5003.04,
Gdańsk,Orańska,760000,59.0,3,2.0,https://www.morizon.pl/oferta/sprzedaz-mieszkanie-gdansk-piecki-migowo-oranska-59m2-mzn2046242726,https://img1.staticmorizon.com.pl/thumb/aHR0cDovL21lZGlhLmRvbXkucGwvaW1nL3pkamVjaWEvc3BlY2phbGlzdC82L3NwZWNqYWxpc3RfbXNfMjhfMS5qcGcjdj0xXzM4MDE4MzY0OTI=/3x2_xs:fill_and_crop/mieszkanie-na-sprzedaz-gdansk-piecki-migowo-59-m.jpg,-1,wtórny,-1,10,1,1,1,1,0,0,1,0,0,54.3561,18.5799,4997.55,5008.81,,5008.57,5005.12,
Gdańsk,Młyńska,762190,45.0,2,1.0,https://www.morizon.pl/oferta/sprzedaz-mieszkanie-pomorskie-gdansk-mlynska-45m2-mzn2046252136,https://img1.staticmorizon.com.pl/thumb/aHR0cDovL21lZGlhLmRvbXkucGwvaW1nL3pkamVjaWEva29uMDQxNS9mL2tvbjA0MTVfbXNfRUM1NzQzNzlfMS5qcGcjdj0xXzM4MDg1MTYwNzI=/3x2_xs:fill_and_crop/mieszkanie-na-sprzedaz-gdansk-mlynska-45-m.jpg,1973,wtórny,Co Miejskie,4,1,1,0,0,0,0,1,0,0,54.35369,18.64961,4990.68,5001.93,,5001.69,4998.24,
Gdańsk,Jana i Macieja Kilarskich,1990000,83.0,4,2.0,https://www.morizon.pl/oferta/sprzedaz-mieszkanie-gdansk-oliwa-jana-i-macieja-kilarskich-83m2-mzn2046183249,https://img1.staticmorizon.com.pl/thumb/aHR0cDovL21lZGlhLmRvbXkucGwvaW1nL3pkamVjaWEvcGFydG5lcnNpbi85L3BhcnRuZXJzaW5fbXNfNjgxMTQ4XzEuanBnI3Y9MV8zNzk4ODAwMDA2/3x2_xs:fill_and_crop/mieszkanie-na-sprzedaz-gdansk-oliwa-83-m.jpg,2022,wtórny,Co Miejskie,7,0,0,0,1,1,0,1,0,0,54.4159608,18.5628893,5002.25,5013.51,,5013.27,5009.82,
Gdańsk,Tysiąclecia,494000,30.0,2,3.0,https://www.morizon.pl/oferta/sprzedaz-mieszkanie-pomorskie-gdansk-tysiaclecia-30m2-mzn2046191048,https://img1.staticmorizon.com.pl/thumb/aHR0cDovL21lZGlhLmRvbXkucGwvaW1nL3pkamVjaWEvbWF4MDAwLzEvbWF4MDAwX21zX0JGVS1NUy03MzlfMS5qcGcjdj0xXzM3ODc1MjQ5MTA=/3x2_xs:fill_and_crop/mieszkanie-na-sprzedaz-gdansk-tysiaclecia-30-m.jpg,1963,wtórny,C.O. miejskie,4,0,1,0,0,1,0,0,0,0,54.41857102,18.59093517,4999.67,5010.93,,5010.68,5007.24,
Gdańsk,Piastowska,559000,46.0,2,1.0,https://www.morizon.pl/oferta/sprzedaz-mieszkanie-gdansk-przymorze-piastowska-46m2-mzn2046213419,https://img1.staticmorizon.com.pl/thumb/aHR0cDovL21lZGlhLmRvbXkucGwvaW1nL3pkamVjaWEvbW9yemUvZC9tb3J6ZV9tc19QQU42NjgwMjVfMS5qcGcjdj0xXzM4MDg2ODY3NzI=/3x2_xs:fill_and_crop/mieszkanie-na-sprzedaz-gdansk-przymorze-46-m.jpg,1966,wtórny,Co Miejskie,10,1,1,0,1,0,0,1,0,0,54.4168678,18.5919335,4999.49,5010.75,,5010.5,5007.05,
Gdańsk,Piotrkowska,649000,54.0,2,0.0,https://www.morizon.pl/oferta/sprzedaz-mieszkanie-gdansk-ujescisko-lostowice-piotrkowska-54m2-mzn2046180207,https://img1.staticmorizon.com.pl/thumb/aHR0cDovL21lZGlhLmRvbXkucGwvaW1nL3pkamVjaWEvZ21nNDYwODA5LzEvZ21nNDYwODA5X21zX0hBMDE1NzAwXzEuanBnI3Y9MV8zODA4ODMwNDAz/3x2_xs:fill_and_crop/mieszkanie-na-sprzedaz-gdansk-ujescisko-lostowice-54-m.jpg,1999,wtórny,C.o. miejskie,4,1,1,1,0,1,0,1,0,0,54.330387,18.584551,4995.79,5007.04,,5006.81,5003.36,
Gdańsk,Pszenna,1081700,37.0,2,5.0,https://www.morizon.pl/oferta/sprzedaz-mieszkanie-gdansk-srodmiescie-pszenna-37m2-mzn2046179197,https://img1.staticmorizon.com.pl/thumb/aHR0cDovL21lZGlhLmRvbXkucGwvaW1nL3pkamVjaWEvcGFydG5lcnNpbi8zL3BhcnRuZXJzaW5fbXNfNjU5Njg2XzEuanBnI3Y9MV8zODA4NjY5ODA4/3x2_xs:fill_and_crop/mieszkanie-na-sprzedaz-gdansk-srodmiescie-37-m.jpg,2020,wtórny,Co Miejskie,6,0,0,0,1,0,0,1,0,0,54.3462286,18.6569238,4989.59,5000.84,,5000.6,4997.15,
Gdańsk,Wielkopolska,405450,31.0,1,3.0,https://www.morizon.pl/oferta/sprzedaz-mieszkanie-gdansk-ujescisko-lostowice-wielkopolska-31m2-mzn2044874494,https://img1.staticmorizon.com.pl/thumb/aHR0cDovL21lZGlhLmRvbXkucGwvaW1nL2Rld2Vsb3Blcnp5LzkzNzlfd2l6dWFsaXphY2phNS5qcGcjdj0xNzU3NzM4NzM2/3x2_xs:fill_and_crop/mieszkanie-w-inwestycji-quercus-gdansk-31-m.jpg,2025,pierwotny,-1,-1,0,0,0,1,1,0,0,0,0,54.3111909,18.58993292,4994.29,5005.54,,5005.31,5001.86,
Gdańsk,Wielkopolska,409500,31.0,1,4.0,https://www.morizon.pl/oferta/sprzedaz-mieszkanie-gdansk-ujescisko-lostowice-wielkopolska-31m2-mzn2044874482,https://img1.staticmorizon.com.pl/thumb/aHR0cDovL21lZGlhLmRvbXkucGwvaW1nL2Rld2Vsb3Blcnp5LzkzNzlfd2l6dWFsaXphY2phOC5qcGcjdj0xNzU3NzM4NzM2/3x2_xs:fill_and_crop/mieszkanie-w-inwestycji-quercus-gdansk-31-m.jpg,2025,pierwotny,-1,-1,0,0,0,1,1,0,0,0,0,54.3111909,18.58993292,4994.29,5005.54,,5005.31,5001.86,
Gdańsk,Wielkopolska,413550,31.0,1,5.0,https://www.morizon.pl/oferta/sprzedaz-mieszkanie-gdansk-ujescisko-lostowice-wielkopolska-31m2-mzn2044874476,https://img1.staticmorizon.com.pl/thumb/aHR0cDovL21lZGlhLmRvbXkucGwvaW1nL2Rld2Vsb3Blcnp5LzkzNzlfd2l6dWFsaXphY2phMTAuanBnI3Y9MTc1NzczODczNg==/3x2_xs:fill_and_crop/mieszkanie-w-inwestycji-quercus-gdansk-31-m.jpg,2025,pierwotny,-1,-1,0,0,0,1,1,0,0,0,0,54.3111909,18.58993292,4994.29,5005.54,,5005.31,5001.86,
Gdańsk,Tadeusza Jasińskiego,478926,45.0,2,0.0,https://www.morizon.pl/oferta/sprzedaz-mieszkanie-gdansk-jasien-tadeusza-jasinskiego-45m2-mzn2043123084,https://img1.staticmorizon.com.pl/thumb/aHR0cDovL21lZGlhLmRvbXkucGwvaW1nL2Rld2Vsb3Blcnp5LzExMDM4X3dpenVhbGl6YWNqYTYuanBnI3Y9MTc1MjgxNjQ1Nw==/3x2_xs:fill_and_crop/mieszkanie-w-inwestycji-optima-gdansk-45-m.jpg,2025,pierwotny,-1,-1,0,0,0,0,0,0,0,0,0,54.33558132,18.54309797,5000.08,5011.33,,5011.09,5007.64,
Gdańsk,Wielkopolska,496460,40.0,2,5.0,https://www.morizon.pl/oferta/sprzedaz-mieszkanie-gdansk-ujescisko-lostowice-wielkopolska-40m2-mzn2044874470,https://img1.staticmorizon.com.pl/thumb/aHR0cDovL21lZGlhLmRvbXkucGwvaW1nL2Rld2Vsb3Blcnp5LzkzNzlfd2l6dWFsaXphY2phMTAuanBnI3Y9MTc1NzczODczNg==/3x2_xs:fill_and_crop/mieszkanie-w-inwestycji-quercus-gdansk-40-m.jpg,2025,pierwotny,-1,-1,0,0,0,0,1,0,0,0,0,54.3111909,18.58993292,4994.29,5005.54,,5005.31,5001.86,
Gdańsk,Wielkopolska,531500,43.0,2,5.0,https://www.morizon.pl/oferta/sprzedaz-mieszkanie-gdansk-ujescisko-lostowice-wielkopolska-43m2-mzn2044874469,https://img1.staticmorizon.com.pl/thumb/aHR0cDovL21lZGlhLmRvbXkucGwvaW1nL2Rld2Vsb3Blcnp5LzkzNzlfd2l6dWFsaXphY2phNi5qcGcjdj0xNzU3NzM4NzM2/3x2_xs:fill_and_crop/mieszkanie-w-inwestycji-quercus-gdansk-43-m.jpg,2025,pierwotny,-1,-1,0,0,0,0,1,0,0,0,0,54.3111909,18.58993292,4994.29,5005.54,,5005.31,5001.86,
Gdańsk,Tadeusza Jasińskiego,536820,50.0,2,0.0,https://www.morizon.pl/oferta/sprzedaz-mieszkanie-gdansk-jasien-tadeusza-jasinskiego-50m2-mzn2043123062,https://img1.staticmorizon.com.pl/thumb/aHR0cDovL21lZGlhLmRvbXkucGwvaW1nL2Rld2Vsb3Blcnp5LzExMDM4X3dpenVhbGl6YWNqYTguanBnI3Y9MTc1MjgxNjQ1Nw==/3x2_xs:fill_and_crop/mieszkanie-w-inwestycji-optima-gdansk-50-m.jpg,2025,pierwotny,-1,-1,0,0,0,0,0,0,0,0,0,54.33558132,18.54309797,5000.08,5011.33,,5011.09,5007.64,
Gdańsk,Wielkopolska,540900,44.0,2,0.0,https://www.morizon.pl/oferta/sprzedaz-mieszkanie-gdansk-ujescisko-lostowice-wielkopolska-44m2-mzn2044874490,https://img1.staticmorizon.com.pl/thumb/aHR0cDovL21lZGlhLmRvbXkucGwvaW1nL2Rld2Vsb3Blcnp5LzkzNzlfd2l6dWFsaXphY2phOC5qcGcjdj0xNzU3NzM4NzM2/3x2_xs:fill_and_crop/mieszkanie-w-inwestycji-quercus-gdansk-44-m.jpg,2025,pierwotny,-1,-1,0,0,0,0,1,0,0,0,0,54.3111909,18.58993292,4994.29,5005.54,,5005.31,5001.86,
Gdańsk,Wielkopolska,722770,66.0,3,0.0,https://www.morizon.pl/oferta/sprzedaz-mieszkanie-gdansk-ujescisko-lostowice-wielkopolska-66m2-mzn2044874473,https://img1.staticmorizon.com.pl/thumb/aHR0cDovL21lZGlhLmRvbXkucGwvaW1nL2Rld2Vsb3Blcnp5LzkzNzlfd2l6dWFsaXphY2phMy5qcGcjdj0xNzU3NzM4NzM2/3x2_xs:fill_and_crop/mieszkanie-w-inwestycji-quercus-gdansk-66-m.jpg,2025,pierwotny,-1,-1,0,0,0,1,1,0,0,0,0,54.3111909,18.58993292,4994.29,5005.54,,5005.31,5001.86,
Gdańsk,Cedrowa,770669,70.0,3,1.0,https://www.morizon.pl/oferta/sprzedaz-mieszkanie-gdansk-ujescisko-lostowice-cedrowa-70m2-mzn2043416461,https://img1.staticmorizon.com.pl/thumb/aHR0cDovL21lZGlhLmRvbXkucGwvaW1nL2Rld2Vsb3Blcnp5LzExMTMzX3dpenVhbGl6YWNqYTEwLmpwZyN2PTE3NTM2OTAyMTQ=/3x2_xs:fill_and_crop/mieszkanie-w-inwestycji-wolne-miasto-etap-vii-gdansk-70-m.jpg,2025,pierwotny,-1,3,0,0,0,1,0,0,0,0,0,54.33732026,18.58573437,4996.03,5007.28,,5007.04,5003.6,
Gdańsk,Leszczynowa,769000,58.0,3,3.0,https://www.morizon.pl/oferta/sprzedaz-mieszkanie-gdansk-jasien-leszczynowa-58m2-mzn2046112739,https://img1.staticmorizon.com.pl/thumb/aHR0cDovL21lZGlhLmRvbXkucGwvaW1nL3pkamVjaWEvbzExMTg0MC9hL28xMTE4NDBfbXNfODY3NTk1XzEuanBnI3Y9MV8zODA4NjIyNjMy/3x2_xs:fill_and_crop/mieszkanie-na-sprzedaz-gdansk-jasien-58-m.jpg,2017,wtórny,Co Miejskie,4,1,0,0,1,1,0,1,0,0,54.3311341,18.5554311,4998.65,5009.9,,5009.67,5006.22,
Gdańsk,Piecki,747751,57.0,3,3.0,https://www.morizon.pl/oferta/sprzedaz-mieszkanie-gdansk-piecki-migowo-57m2-mzn2046237244,https://img1.staticmorizon.com.pl/thumb/aHR0cDovL21lZGlhLmRvbXkucGwvaW1nL3pkamVjaWEvbzE1MDI1Ny8zL28xNTAyNTdfbXNfNTdfNi5qcGcjdj0xXzM3OTg3MTAxNjM=/3x2_xs:fill_and_crop/mieszkanie-na-sprzedaz-gdansk-piecki-migowo-57-m.jpg,2025,pierwotny,Miejskie,4,1,1,0,1,1,0,1,1,0,54.3491,18.572,4997.96,5009.22,,5008.98,5005.53,
Gdańsk,Stara Stocznia,2799000,92.0,4,4.0,https://www.morizon.pl/oferta/sprzedaz-mieszkanie-gdansk-srodmiescie-stara-stocznia-92m2-mzn2046061716,https://img1.staticmorizon.com.pl/thumb/aHR0cDovL21lZGlhLmRvbXkucGwvaW1nL3pkamVjaWEvbzEyMzI4NC84L28xMjMyODRfbXNfNjIyNzU4XzEuanBnI3Y9MV8zNzk0NzIwNTU0/3x2_xs:fill_and_crop/mieszkanie-na-sprzedaz-gdansk-srodmiescie-92-m.jpg,-1,wtórny,Co Miejskie,6,0,0,1,1,1,0,1,0,0,54.3560546,18.6623499,4989.56,5000.82,,5000.57,4997.13,
Gdańsk,Niepołomicka,699000,63.0,3,1.0,https://www.morizon.pl/oferta/sprzedaz-mieszkanie-gdansk-ujescisko-lostowice-niepolomicka-63m2-mzn2046162479,https://img1.staticmorizon.com.pl/thumb/aHR0cDovL21lZGlhLmRvbXkucGwvaW1nL3pkamVjaWEvbzE2MzAzOS85L28xNjMwMzlfbXNfS0kxNjg3MjhfMS5qcGcjdj0xXzM3OTc3MDg2MTY=/3x2_xs:fill_and_crop/mieszkanie-na-sprzedaz-gdansk-ujescisko-lostowice-63-m.jpg,-1,wtórny,Co Miejskie,5,1,1,0,1,1,1,1,0,0,54.3128182,18.5964632,4993.74,5004.99,,5004.76,5001.31,
Gdańsk,Księdza Jerzego Popiełuszki,2199000,87.0,3,7.0,https://www.morizon.pl/oferta/sprzedaz-mieszkanie-gdansk-srodmiescie-ks-jerzego-popieluszki-87m2-mzn2045894815,https://img1.staticmorizon.com.pl/thumb/aHR0cDovL21lZGlhLmRvbXkucGwvaW1nL3pkamVjaWEvc21vbGdlci8zL3Ntb2xnZXJfbXNfOTgxMjkxXzEuanBnI3Y9MV8zNzQ2Mzg4NTgy/3x2_xs:fill_and_crop/mieszkanie-na-sprzedaz-gdansk-srodmiescie-87-m.jpg,2023,wtórny,Co Miejskie,7,1,0,1,1,1,1,1,0,0,54.36042,18.65658,4990.34,5001.6,,5001.36,4997.91,
Gdańsk,Juliusza Słowackiego,639000,42.0,2,4.0,https://www.morizon.pl/oferta/sprzedaz-mieszkanie-gdansk-wrzeszcz-juliusza-slowackiego-42m2-mzn2045895383,https://img1.staticmorizon.com.pl/thumb/aHR0cDovL21lZGlhLmRvbXkucGwvaW1nL3pkamVjaWEvbzYxODA4LzcvbzYxODA4X21zX05OMzQwMjY5XzEuanBnI3Y9MV8zODAyMjAyNjY1/3x2_xs:fill_and_crop/mieszkanie-na-sprzedaz-gdansk-wrzeszcz-42-m.jpg,2009,wtórny,Co Miejskie,8,1,0,0,1,1,0,1,0,0,54.3790845,18.5773602,4998.97,5010.23,,5009.98,5006.54,
Gdańsk,Wałowa,749000,34.0,2,2.0,https://www.morizon.pl/oferta/sprzedaz-mieszkanie-gdansk-srodmiescie-walowa-34m2-mzn2046102380,https://img1.staticmorizon.com.pl/thumb/aHR0cDovL21lZGlhLmRvbXkucGwvaW1nL3pkamVjaWEvZG9taG91c2UvNi9kb21ob3VzZV9tc19ESDExNTMwOF8xLmpwZyN2PTFfMzc5NDcxNjU5OQ==/3x2_xs:fill_and_crop/mieszkanie-na-sprzedaz-gdansk-srodmiescie-34-m.jpg,2021,wtórny,Co Miejskie,4,1,0,0,1,0,1,0,0,0,54.3589705,18.6505297,4990.86,5002.11,,5001.87,4998.42,
Gdańsk,Jacka Malczewskiego,885000,55.0,2,0.0,https://www.morizon.pl/oferta/sprzedaz-mieszkanie-gdansk-srodmiescie-jacka-malczewskiego-55m2-mzn2045892401,https://img1.staticmorizon.com.pl/thumb/aHR0cDovL21lZGlhLmRvbXkucGwvaW1nL3pkamVjaWEvbW9yemUvMy9tb3J6ZV9tc19QQU43Nzg0NzVfMS5qcGcjdj0xXzM4MDgzODc3OTI=/3x2_xs:fill_and_crop/mieszkanie-na-sprzedaz-gdansk-srodmiescie-55-m.jpg,2023,wtórny,Co Miejskie,3,1,1,0,1,1,1,0,1,1,54.3467494,18.6178367,4993.4,5004.66,,5004.41,5000.97,
Gdańsk,Pilotów,515000,31.0,1,10.0,https://www.morizon.pl/oferta/sprzedaz-mieszkanie-gdansk-zaspa-pilotow-31m2-mzn2045878341,https://img1.staticmorizon.com.pl/thumb/aHR0cDovL21lZGlhLmRvbXkucGwvaW1nL3pkamVjaWEvbzEzNzQ3NC9jL28xMzc0NzRfbXNfMTUwNDc2XzEuanBnI3Y9MV8zNzg3NTU5MzQ5/3x2_xs:fill_and_crop/kawalerka-na-sprzedaz-gdansk-zaspa-31-m.jpg,1970,wtórny,-1,10,0,1,0,1,1,0,1,0,0,54.3942911,18.5893124,4998.59,5009.85,,5009.6,5006.16,
Gdańsk,Powstańców Wielkopolskich,1399000,75.0,4,2.0,https://www.morizon.pl/oferta/sprzedaz-mieszkanie-gdansk-zaspa-powstancow-wielkopolskich-75m2-mzn2046236815,https://img1.staticmorizon.com.pl/thumb/aHR0cDovL21lZGlhLmRvbXkucGwvaW1nL3pkamVjaWEvYm5wcnp5MTIvOC9ibnByenkxMl9tc18yNjIyJTI1MkYxNjg2MSUyNTJGT01TXzEuanBnI3Y9MV8zODA4NTk4MDA3/3x2_xs:fill_and_crop/mieszkanie-na-sprzedaz-gdansk-zaspa-75-m.jpg,2016,wtórny,C.O. Z SIECI MIEJSKIEJ,5,1,1,0,1,1,0,1,0,0,54.3987758,18.615946,4996.24,5007.5,,5007.25,5003.8,
Gdańsk,Księdza Jerzego Popiełuszki,1850000,76.0,3,9.0,https://www.morizon.pl/oferta/sprzedaz-mieszkanie-gdansk-mlyniska-ks-jerzego-popieluszki-76m2-mzn2045876699,https://img1.staticmorizon.com.pl/thumb/aHR0cDovL21lZGlhLmRvbXkucGwvaW1nL3pkamVjaWEvcGFydG5lcnNpbi9lL3BhcnRuZXJzaW5fbXNfOTQyODgzXzEuanBnI3Y9MV8zNzkzMzQ2NDQ2/3x2_xs:fill_and_crop/mieszkanie-na-sprzedaz-gdansk-mlyniska-76-m.jpg,2025,wtórny,Co Miejskie,9,0,0,0,1,1,0,0,0,0,54.3630456,18.6488883,4991.22,5002.48,,5002.23,4998.79,
Gdańsk,Karola Dickensa,479000,42.0,2,2.0,https://www.morizon.pl/oferta/sprzedaz-mieszkanie-gdansk-przerobka-karola-dickensa-42m2-mzn2045895765,https://img1.staticmorizon.com.pl/thumb/aHR0cDovL21lZGlhLmRvbXkucGwvaW1nL3pkamVjaWEvbW9yemUvOC9tb3J6ZV9tc19QQU4zNDY1MDFfMS5qcGcjdj0xXzM4MDg0OTM0Mjc=/3x2_xs:fill_and_crop/mieszkanie-na-sprzedaz-gdansk-przerobka-42-m.jpg,1977,wtórny,Co Miejskie,10,0,1,0,1,0,0,1,0,0,54.3570543,18.6877682,4987.15,4998.41,,4998.16,4994.72,
Gdańsk,Łąkowa,1060000,55.0,2,5.0,https://www.morizon.pl/oferta/sprzedaz-mieszkanie-gdansk-srodmiescie-lakowa-55m2-mzn2045877680,https://img1.staticmorizon.com.pl/thumb/aHR0cDovL21lZGlhLmRvbXkucGwvaW1nL3pkamVjaWEvbW9yemUvYS9tb3J6ZV9tc19QQU43MDYzMTdfMS5qcGcjdj0xXzM4MDgzODQxMzg=/3x2_xs:fill_and_crop/mieszkanie-na-sprzedaz-gdansk-srodmiescie-55-m.jpg,2022,wtórny,Co Miejskie,5,0,1,0,1,1,0,1,0,0,54.3441957,18.6628912,4988.9,5000.16,,4999.92,4996.47,
Gdańsk,Wyzwolenia,729000,63.0,3,4.0,https://www.morizon.pl/oferta/sprzedaz-mieszkanie-gdansk-nowy-port-wyzwolenia-63m2-mzn2045878289,https://img1.staticmorizon.com.pl/thumb/aHR0cDovL21lZGlhLmRvbXkucGwvaW1nL3pkamVjaWEvZ21nNDYwODU5LzYvZ21nNDYwODU5X21zXzg1OTIwNV8xLmpwZyN2PTFfMzc5NTkzMTU3MQ==/3x2_xs:fill_and_crop/mieszkanie-na-sprzedaz-gdansk-nowy-port-63-m.jpg,1985,wtórny,-1,4,0,1,0,0,1,0,1,0,0,54.4030735,18.654033,4992.77,5004.03,,5003.78,5000.33,
Gdańsk,Świętej Barbary,1299000,47.0,2,6.0,https://www.morizon.pl/oferta/sprzedaz-mieszkanie-gdansk-srodmiescie-sw-barbary-47m2-mzn2045919195,https://img1.staticmorizon.com.pl/thumb/aHR0cDovL21lZGlhLmRvbXkucGwvaW1nL3pkamVjaWEvbmFkbW8xL2UvbmFkbW8xX21zXzU0NzIxMF8xLmpwZyN2PTRfMzc0NjQyMDQyNg==/3x2_xs:fill_and_crop/mieszkanie-na-sprzedaz-gdansk-srodmiescie-47-m.jpg,2020,wtórny,Miejskie,6,1,0,1,1,1,0,0,1,0,54.3492,18.6618,4989.26,5000.52,,5000.28,4996.83,
Gdańsk,Łódzka,610000,49.0,2,0.0,https://www.morizon.pl/oferta/sprzedaz-mieszkanie-pomorskie-gdansk-lodzka-49m2-mzn2045844996,https://img1.staticmorizon.com.pl/thumb/aHR0cDovL21lZGlhLmRvbXkucGwvaW1nL3pkamVjaWEva29uMDQxNS85L2tvbjA0MTVfbXNfRUMyNjU0MjZfMS5qcGcjdj0xXzM4MDg3MjMzODM=/3x2_xs:fill_and_crop/mieszkanie-na-sprzedaz-gdansk-lodzka-49-m.jpg,2024,pierwotny,-1,5,1,0,0,1,1,0,0,0,1,54.32444,18.60221,4993.78,5005.03,,5004.79,5001.34,
Gdańsk,Księdza Jerzego Popiełuszki,1496000,68.0,3,4.0,https://www.morizon.pl/oferta/sprzedaz-mieszkanie-gdansk-srodmiescie-ks-jerzego-popieluszki-68m2-mzn2045859639,https://img1.staticmorizon.com.pl/thumb/aHR0cDovL21lZGlhLmRvbXkucGwvaW1nL3pkamVjaWEvbWFyaW5hMS9lL21hcmluYTFfbXNfRUM2NjI4MjM1NDhfMS5qcGcjdj0xXzM3OTUxNjYxMzM=/3x2_xs:fill_and_crop/mieszkanie-na-sprzedaz-gdansk-srodmiescie-68-m.jpg,2025,wtórny,Co Miejskie,6,0,0,0,1,1,0,0,0,0,54.3610143,18.6541795,4990.61,5001.87,,5001.62,4998.17,
Gdańsk,Zbigniewa Podleckiego,469000,35.0,1,2.0,https://www.morizon.pl/oferta/sprzedaz-mieszkanie-gdansk-ujescisko-lostowice-zbigniewa-podleckiego-35m2-mzn2046112135,https://img1.staticmorizon.com.pl/thumb/aHR0cDovL21lZGlhLmRvbXkucGwvaW1nL3pkamVjaWEvZG9taG91c2UvOS9kb21ob3VzZV9tc19ESDE3NTg3Nl8xLmpwZyN2PTFfMzc5NDcxNjU3OQ==/3x2_xs:fill_and_crop/kawalerka-na-sprzedaz-gdansk-ujescisko-lostowice-35-m.jpg,2014,wtórny,Co Miejskie,3,1,1,0,1,1,0,1,0,0,54.30758,18.59356,4993.76,5005.01,,5004.77,5001.32,
Gdańsk,Ofiar Grudnia 70,1590000,110.0,4,4.0,https://www.morizon.pl/oferta/sprzedaz-mieszkanie-pomorskie-gdansk-ofiar-grudnia-110m2-mzn2046069389,https://img1.staticmorizon.com.pl/thumb/aHR0cDovL21lZGlhLmRvbXkucGwvaW1nL3pkamVjaWEvZG9taC9mL2RvbWhfbXNfREg1NjE5MzRfMS5qcGcjdj0xXzM4MDg3NTQyMTk=/3x2_xs:fill_and_crop/mieszkanie-na-sprzedaz-gdansk-ofiar-grudnia-110-m.jpg,2023,wtórny,-1,4,0,0,0,1,1,0,0,1,0,54.308165,18.5831015,4994.8,5006.05,,5005.81,5002.37,
Gdańsk,Henryka Arctowskiego,775000,73.0,4,1.0,https://www.morizon.pl/oferta/sprzedaz-mieszkanie-gdansk-piecki-migowo-henryka-arctowskiego-73m2-mzn2045873432,https://img1.staticmorizon.com.pl/thumb/aHR0cDovL21lZGlhLmRvbXkucGwvaW1nL3pkamVjaWEvbW9yemUvYi9tb3J6ZV9tc19QQU45NjYwMzZfMS5qcGcjdj0xXzM4MDg0OTE4NTc=/3x2_xs:fill_and_crop/mieszkanie-na-sprzedaz-gdansk-piecki-migowo-73-m.jpg,1978,wtórny,Co Miejskie,4,1,1,0,0,1,0,1,0,1,54.3592936,18.5866637,4997.06,5008.32,,5008.07,5004.63,
Gdańsk,Kartuska,1039000,72.0,3,1.0,https://www.morizon.pl/oferta/sprzedaz-mieszkanie-gdansk-ujescisko-lostowice-kartuska-72m2-mzn2046112136,https://img1.staticmorizon.com.pl/thumb/aHR0cDovL21lZGlhLmRvbXkucGwvaW1nL3pkamVjaWEvZG9taG91c2UvYi9kb21ob3VzZV9tc19ESDIzMzQxN18xLmpwZyN2PTFfMzc5NDcxNjY3NA==/3x2_xs:fill_and_crop/mieszkanie-na-sprzedaz-gdansk-ujescisko-lostowice-72-m.jpg,2010,wtórny,Gazowe,2,0,0,0,1,1,0,0,0,1,54.34439,18.58448,4996.51,5007.77,,5007.53,5004.08,
Gdańsk,Wyspa Sobieszewska,2596000,78.0,3,2.0,https://www.morizon.pl/oferta/sprzedaz-mieszkanie-gdansk-wyspa-sobieszewska-78m2-mzn2045888756,https://img1.staticmorizon.com.pl/thumb/aHR0cDovL21lZGlhLmRvbXkucGwvaW1nL3pkamVjaWEvcGFydG5lcnNpbi8yL3BhcnRuZXJzaW5fbXNfMTk5MzEzXzEuanBnI3Y9MV8zODAyNjU5Mjg5/3x2_xs:fill_and_crop/mieszkanie-na-sprzedaz-gdansk-wyspa-sobieszewska-78-m.jpg,2025,pierwotny,Co Własne,2,0,0,0,1,1,1,1,0,1,54.3419362,18.8163417,4973.93,4985.19,,4984.94,4981.49,
Gdańsk,Śródmieście,379030,26.0,2,3.0,https://www.morizon.pl/oferta/sprzedaz-mieszkanie-gdansk-srodmiescie-26m2-mzn2045837655,https://img1.staticmorizon.com.pl/thumb/aHR0cDovL21lZGlhLmRvbXkucGwvaW1nL3pkamVjaWEvbjEyOTE1Mi9hL24xMjkxNTJfbXNfT0Y0MDk4NTgwMDhfMS5qcGcjdj0xXzM4MDI3ODE2NDI=/3x2_xs:fill_and_crop/mieszkanie-na-sprzedaz-gdansk-srodmiescie-26-m.jpg,2024,pierwotny,-1,4,0,0,0,1,1,0,1,0,0,54.35114,18.67415,4988.17,4999.43,,4999.18,4995.73,
Gdańsk,Tamka,399000,34.0,2,3.0,https://www.morizon.pl/oferta/sprzedaz-mieszkanie-gdansk-stogi-tamka-34m2-mzn2045795543,https://img1.staticmorizon.com.pl/thumb/aHR0cDovL21lZGlhLmRvbXkucGwvaW1nL3pkamVjaWEvbW9yemUvMC9tb3J6ZV9tc19QQU43OTY1NDVfMS5qcGcjdj0xXzM4MDE0ODQxNDQ=/3x2_xs:fill_and_crop/mieszkanie-na-sprzedaz-gdansk-stogi-34-m.jpg,1970,wtórny,Co Miejskie,4,1,1,0,0,1,0,0,0,0,54.3594702,18.7147444,4984.66,4995.92,,4995.67,4992.23,
Gdańsk,Morenowe Wzgórze,510000,36.0,1,2.0,https://www.morizon.pl/oferta/sprzedaz-mieszkanie-gdansk-piecki-migowo-morenowe-wzgorze-36m2-mzn2045841751,https://img1.staticmorizon.com.pl/thumb/aHR0cDovL21lZGlhLmRvbXkucGwvaW1nL3pkamVjaWEvc2hhcmthZ2VuLzAvc2hhcmthZ2VuX21zXzEyODY4JTI1MkY4NjUzJTI1MkZPTVNfMS5qcGcjdj0xXzM3ODA3OTMzNjM=/3x2_xs:fill_and_crop/kawalerka-na-sprzedaz-gdansk-piecki-migowo-36-m.jpg,2006,wtórny,C.O. Z SIECI MIEJSKIEJ,3,0,0,0,0,0,0,1,0,0,54.3502515,18.5642083,4998.78,5010.03,,5009.79,5006.34,
Gdańsk,Pomorska,795000,63.0,2,8.0,https://www.morizon.pl/oferta/sprzedaz-mieszkanie-gdansk-przymorze-pomorska-63m2-mzn2045732927,https://img1.staticmorizon.com.pl/thumb/aHR0cDovL21lZGlhLmRvbXkucGwvaW1nL3pkamVjaWEvbW9yemUvZi9tb3J6ZV9tc19QQU40MDYwOTZfMS5qcGcjdj0xXzM4MDg3ODIwNzk=/3x2_xs:fill_and_crop/mieszkanie-na-sprzedaz-gdansk-przymorze-63-m.jpg,1970,wtórny,Co Miejskie,10,1,1,0,1,0,0,1,0,0,54.418071,18.579488,5000.75,5012.02,,5011.77,5008.32,
Gdańsk,Myśliwskie Wzgórze,1430000,82.0,3,3.0,https://www.morizon.pl/oferta/sprzedaz-mieszkanie-gdansk-piecki-migowo-mysliwskie-wzgorze-82m2-mzn2045870166,https://img1.staticmorizon.com.pl/thumb/aHR0cDovL21lZGlhLmRvbXkucGwvaW1nL3pkamVjaWEvZ21nNDYxNDQzLzAvZ21nNDYxNDQzX21zXzMlMjUyRjE4MzI3JTI1MkZPTVNfMS5qcGcjdj0xXzM3OTA3ODc4MjE=/3x2_xs:fill_and_crop/mieszkanie-na-sprzedaz-gdansk-piecki-migowo-82-m.jpg,2011,wtórny,C.O. Z SIECI MIEJSKIEJ,3,0,1,0,1,1,0,1,0,0,54.34645786,18.56184125,4998.81,5010.07,,5009.83,5006.38,
Gdańsk,Sucha,1980000,90.0,4,16.0,https://www.morizon.pl/oferta/sprzedaz-mieszkanie-gdansk-letnica-sucha-90m2-mzn2045705311,https://img1.staticmorizon.com.pl/thumb/aHR0cDovL21lZGlhLmRvbXkucGwvaW1nL3pkamVjaWEvZXN0YXRpYy85L2VzdGF0aWNfbXNfT045NzkyODRfMS5qcGcjdj0xXzM4MDcxNzU5MDc=/3x2_xs:fill_and_crop/mieszkanie-na-sprzedaz-gdansk-letnica-90-m.jpg,2020,wtórny,Co Miejskie,16,1,0,0,1,1,0,0,0,0,54.39463,18.6434832,4993.36,5004.62,,5004.37,5000.92,
Gdańsk,Łąkowa,2350000,120.0,4,1.0,https://www.morizon.pl/oferta/sprzedaz-mieszkanie-gdansk-srodmiescie-lakowa-120m2-mzn2045844000,https://img1.staticmorizon.com.pl/thumb/aHR0cDovL21lZGlhLmRvbXkucGwvaW1nL3pkamVjaWEvcGFydG5lcnNpbi9mL3BhcnRuZXJzaW5fbXNfOTgwMDU0XzEuanBnI3Y9MV8zNzg1MTg0Nzc3/3x2_xs:fill_and_crop/mieszkanie-na-sprzedaz-gdansk-srodmiescie-120-m.jpg,1898,wtórny,Co Miejskie,4,1,1,0,0,0,0,1,0,0,54.34252,18.66128,4988.97,5000.23,,4999.99,4996.54,
Gdańsk,Jana Bażyńskiego,2907582,115.0,4,2.0,https://www.morizon.pl/oferta/sprzedaz-mieszkanie-gdansk-oliwa-jana-bazynskiego-115m2-mzn2045712750,https://img1.staticmorizon.com.pl/thumb/aHR0cDovL21lZGlhLmRvbXkucGwvaW1nL3pkamVjaWEvcGFydG5lcnNpbi84L3BhcnRuZXJzaW5fbXNfMzE5OTA3XzEuanBnI3Y9MV8zODAyODkyODEy/3x2_xs:fill_and_crop/mieszkanie-na-sprzedaz-gdansk-oliwa-115-m.jpg,2024,wtórny,Co Miejskie,3,0,0,0,1,1,0,1,0,0,54.3995566,18.5698469,5000.74,5012.0,,5011.76,5008.31,
Gdańsk,Śródmieście,306857,27.0,1,3.0,https://www.morizon.pl/oferta/sprzedaz-mieszkanie-gdansk-srodmiescie-27m2-mzn2045648728,https://img1.staticmorizon.com.pl/thumb/aHR0cDovL21lZGlhLmRvbXkucGwvaW1nL3pkamVjaWEvZ21nNDYxNDcxLzgvZ21nNDYxNDcxX21zXzEyNzE3OF8xLmpwZyN2PTFfMzgwMjQ1OTU0OQ==/3x2_xs:fill_and_crop/kawalerka-na-sprzedaz-gdansk-srodmiescie-27-m.jpg,2025,pierwotny,Co Miejskie,4,1,0,0,1,0,1,1,0,0,54.34874,18.66319,4989.11,5000.37,,5000.12,4996.67,
Gdańsk,Startowa,599000,48.0,2,8.0,https://www.morizon.pl/oferta/sprzedaz-mieszkanie-gdansk-zaspa-startowa-48m2-mzn2045712477,https://img1.staticmorizon.com.pl/thumb/aHR0cDovL21lZGlhLmRvbXkucGwvaW1nL3pkamVjaWEvbW9yemUvYS9tb3J6ZV9tc19QQU41MzU2NDhfMS5qcGcjdj0xXzM4MDg0OTI5ODk=/3x2_xs:fill_and_crop/mieszkanie-na-sprzedaz-gdansk-zaspa-48-m.jpg,1970,wtórny,Co Miejskie,10,0,1,0,1,0,0,1,0,0,54.3947459,18.5980094,4997.77,5009.03,,5008.78,5005.34,
Gdańsk,Bliźniąt,680000,64.0,4,2.0,https://www.morizon.pl/oferta/sprzedaz-mieszkanie-gdansk-osowa-blizniat-64m2-mzn2045892572,https://img1.staticmorizon.com.pl/thumb/aHR0cDovL21lZGlhLmRvbXkucGwvaW1nL3pkamVjaWEvYm5wcnp5MTIvNi9ibnByenkxMl9tc18yMjk1JTI1MkYxNjg2MSUyNTJGT01TXzEuanBnI3Y9MV8zNzg1MjI0MzA4/3x2_xs:fill_and_crop/mieszkanie-na-sprzedaz-gdansk-osowa-64-m.jpg,2001,wtórny,C.O. WŁASNE,3,0,1,0,0,1,0,1,0,0,54.4274212,18.4809365,5010.78,5022.04,,5021.79,5018.35,
Gdańsk,Starowiejska,694000,48.0,2,3.0,https://www.morizon.pl/oferta/sprzedaz-mieszkanie-gdansk-letnica-starowiejska-48m2-mzn2045719476,https://img1.staticmorizon.com.pl/thumb/aHR0cDovL21lZGlhLmRvbXkucGwvaW1nL3pkamVjaWEvZ21nNDYwOTc1L2YvZ21nNDYwOTc1X21zXzY3NDY0M18xLmpwZyN2PTFfMzgwMDE2ODc3Ng==/3x2_xs:fill_and_crop/mieszkanie-na-sprzedaz-gdansk-letnica-48-m.jpg,2025,wtórny,Co Miejskie,18,1,0,0,1,1,0,1,0,0,54.3953089,18.6466291,4993.09,5004.35,,5004.1,5000.65,
Gdańsk,Turystyczna,1040650,63.0,2,0.0,https://www.morizon.pl/oferta/sprzedaz-mieszkanie-gdansk-wyspa-sobieszewska-turystyczna-63m2-mzn2045888388,https://img1.staticmorizon.com.pl/thumb/aHR0cDovL21lZGlhLmRvbXkucGwvaW1nL3pkamVjaWEvcGFydG5lcnNpbi82L3BhcnRuZXJzaW5fbXNfMTYwNjAzXzEuanBnI3Y9MV8zODAyNjUxMDU4/3x2_xs:fill_and_crop/mieszkanie-na-sprzedaz-gdansk-wyspa-sobieszewska-63-m.jpg,2025,wtórny,Co Własne,1,1,0,0,1,1,1,1,1,1,54.3409949,18.8613915,4969.52,4980.79,,4980.53,4977.08,
Gdańsk,Artura Grottgera,3266777,128.0,5,2.0,https://www.morizon.pl/oferta/sprzedaz-mieszkanie-gdansk-oliwa-artura-grottgera-128m2-mzn2045944060,https://img1.staticmorizon.com.pl/thumb/aHR0cDovL21lZGlhLmRvbXkucGwvaW1nL3pkamVjaWEvYm5ob21lYnJvMS80L2JuaG9tZWJybzFfbXNfNjI3OTczLTFfMi5qcGcjdj0xXzM3NDg4MDMyNjE=/3x2_xs:fill_and_crop/mieszkanie-na-sprzedaz-gdansk-oliwa-128-m.jpg,2024,pierwotny,-1,3,0,0,0,1,0,0,1,0,1,54.3991,18.5662,5001.07,5012.33,,5012.09,5008.64,
Gdańsk,Józefa Czyżewskiego,415000,27.0,2,0.0,https://www.morizon.pl/oferta/sprzedaz-mieszkanie-gdansk-oliwa-jozefa-czyzewskiego-27m2-mzn2045281269,https://img1.staticmorizon.com.pl/thumb/aHR0cDovL21lZGlhLmRvbXkucGwvaW1nL3pkamVjaWEvbW9yemUvMC9tb3J6ZV9tc19QQU40Mzk2NjJfMS5qcGcjdj0xXzM4MDg0OTE2NzI=/3x2_xs:fill_and_crop/mieszkanie-na-sprzedaz-gdansk-oliwa-27-m.jpg,1907,wtórny,Elektryczne,2,1,1,0,0,0,1,0,0,0,54.41874,18.55957,5002.72,5013.98,,5013.73,5010.28,
Gdańsk,Hoża,600000,53.0,3,0.0,https://www.morizon.pl/oferta/sprzedaz-mieszkanie-gdansk-stogi-hoza-53m2-mzn2045634552,https://img1.staticmorizon.com.pl/thumb/aHR0cDovL21lZGlhLmRvbXkucGwvaW1nL3pkamVjaWEvbzYxODA4LzgvbzYxODA4X21zX05ONDUzMDAwXzEuanBnI3Y9MV8zODAwMjAwNzg0/3x2_xs:fill_and_crop/mieszkanie-na-sprzedaz-gdansk-stogi-53-m.jpg,-1,wtórny,Co Miejskie,4,1,1,0,0,1,0,1,0,0,54.35988,18.71331,4984.82,4996.08,,4995.83,4992.39,
Gdańsk,Stępkarska,713370,33.0,1,0.0,https://www.morizon.pl/oferta/sprzedaz-mieszkanie-gdansk-srodmiescie-stepkarska-33m2-mzn2045857567,https://img1.staticmorizon.com.pl/thumb/aHR0cDovL21lZGlhLmRvbXkucGwvaW1nL3pkamVjaWEvcGFydG5lcnNpbi83L3BhcnRuZXJzaW5fbXNfMjY0NTc1XzEuanBnI3Y9MV8zODAyNTQ1MDcz/3x2_xs:fill_and_crop/kawalerka-na-sprzedaz-gdansk-srodmiescie-33-m.jpg,2027,pierwotny,Co Miejskie,7,1,0,0,1,1,0,0,1,0,54.3587667,18.6643674,4989.5,5000.76,,5000.52,4997.07,
Gdańsk,Tandeta,749000,36.0,1,1.0,https://www.morizon.pl/oferta/sprzedaz-mieszkanie-gdansk-srodmiescie-tandeta-36m2-mzn2045416742,https://img1.staticmorizon.com.pl/thumb/aHR0cDovL21lZGlhLmRvbXkucGwvaW1nL3pkamVjaWEvZ21nNDYwOTc1LzUvZ21nNDYwOTc1X21zXzU4OTk2M18xLmpwZyN2PTFfMzgwMDE2ODU2Ng==/3x2_xs:fill_and_crop/kawalerka-na-sprzedaz-gdansk-srodmiescie-36-m.jpg,2012,wtórny,Inne,4,1,0,1,1,1,1,0,1,0,54.35133,18.65553,4989.98,5001.24,,5000.99,4997.55,
Gdańsk,Stefana Ramułta,999000,105.0,4,0.0,https://www.morizon.pl/oferta/sprzedaz-mieszkanie-gdansk-orunia-sw-wojciech-lipce-stefana-ramulta-105m2-mzn2045359531,https://img1.staticmorizon.com.pl/thumb/aHR0cDovL21lZGlhLmRvbXkucGwvaW1nL3pkamVjaWEvbW9yemUvOS9tb3J6ZV9tc19QQU43NzAxMzVfMS5qcGcjdj0xXzM4MDAxNDU4OTI=/3x2_xs:fill_and_crop/mieszkanie-na-sprzedaz-gdansk-orunia-sw-wojciech-lipce-105-m.jpg,1950,wtórny,Gazowe,2,1,1,0,0,1,0,0,1,1,54.3211399,18.6343342,4990.5,5001.75,,5001.51,4998.06,
Gdańsk,Księdza Jerzego Popiełuszki,1303000,59.0,3,1.0,https://www.morizon.pl/oferta/sprzedaz-mieszkanie-gdansk-srodmiescie-ks-jerzego-popieluszki-59m2-mzn2045850227,https://img1.staticmorizon.com.pl/thumb/aHR0cDovL21lZGlhLmRvbXkucGwvaW1nL3pkamVjaWEvbWFyaW5hMS80L21hcmluYTFfbXNfRUM3OTUyOTM1OTBfMS5qcGcjdj0xXzM3ODY0MzYxMzM=/3x2_xs:fill_and_crop/mieszkanie-na-sprzedaz-gdansk-srodmiescie-59-m.jpg,2025,wtórny,Co Miejskie,6,0,0,0,1,1,0,0,1,1,54.3609142,18.6543511,4990.58,5001.84,,5001.6,4998.15,
Gdańsk,Aleja Jana Pawła II,860000,49.0,2,0.0,https://www.morizon.pl/oferta/sprzedaz-mieszkanie-gdansk-zaspa-aleja-jana-pawla-ii-49m2-mzn2046207208,https://img1.staticmorizon.com.pl/thumb/aHR0cDovL21lZGlhLmRvbXkucGwvaW1nL3pkamVjaWEvZ21nNDYyNDQ5LzMvZ21nNDYyNDQ5X21zXzk5OTMxOTYxMV8xLmpwZyN2PTFfMzc5NTg5NDQ5OQ==/3x2_xs:fill_and_crop/mieszkanie-na-sprzedaz-gdansk-zaspa-49-m.jpg,-1,wtórny,Miejskie,10,0,0,0,1,1,0,0,0,0,54.3970455,18.6003247,4997.66,5008.92,,5008.67,5005.23,
Gdańsk,Powstańców Wielkopolskich,1399000,75.0,4,2.0,https://www.morizon.pl/oferta/sprzedaz-mieszkanie-gdansk-zaspa-powstancow-wielkopolskich-75m2-mzn2046236815,https://img1.staticmorizon.com.pl/thumb/aHR0cDovL21lZGlhLmRvbXkucGwvaW1nL3pkamVjaWEvYm5wcnp5MTIvOC9ibnByenkxMl9tc18yNjIyJTI1MkYxNjg2MSUyNTJGT01TXzEuanBnI3Y9MV8zODA4NTk4MDA3/3x2_xs:fill_and_crop/mieszkanie-na-sprzedaz-gdansk-zaspa-75-m.jpg,2016,wtórny,C.O. Z SIECI MIEJSKIEJ,5,1,1,0,1,1,0,1,0,0,54.3987758,18.615946,4996.24,5007.5,,5007.25,5003.8,
Gdańsk,Polanki,1849000,140.0,6,2.0,https://www.morizon.pl/oferta/sprzedaz-mieszkanie-gdansk-oliwa-polanki-140m2-mzn2045509646,https://img1.staticmorizon.com.pl/thumb/aHR0cDovL21lZGlhLmRvbXkucGwvaW1nL3pkamVjaWEvZXN0YXRpYy8zL2VzdGF0aWNfbXNfT041NTYxNDVfMS5qcGcjdj0xXzM3OTQ5NTQ3NDY=/3x2_xs:fill_and_crop/mieszkanie-na-sprzedaz-gdansk-oliwa-140-m.jpg,1890,wtórny,Gazowe,2,0,1,0,0,1,0,1,0,0,54.40539,18.56025,5001.97,5013.23,,5012.98,5009.54,
Gdańsk,Łąkowa,2012949,92.0,4,3.0,https://www.morizon.pl/oferta/sprzedaz-mieszkanie-gdansk-srodmiescie-lakowa-92m2-mzn2045394190,https://img1.staticmorizon.com.pl/thumb/aHR0cDovL21lZGlhLmRvbXkucGwvaW1nL3pkamVjaWEvcGFydG5lcnNpbi81L3BhcnRuZXJzaW5fbXNfOTMxNzAyXzEuanBnI3Y9MV8zODAyNTM4NTEz/3x2_xs:fill_and_crop/mieszkanie-na-sprzedaz-gdansk-srodmiescie-92-m.jpg,2024,wtórny,Co Miejskie,5,1,0,0,1,1,0,1,0,0,54.34508,18.64785,4990.41,5001.66,,5001.42,4997.97,
Gdańsk,Stara Stocznia,2070773,95.0,4,5.0,https://www.morizon.pl/oferta/sprzedaz-mieszkanie-gdansk-srodmiescie-stara-stocznia-95m2-mzn2045376633,https://img1.staticmorizon.com.pl/thumb/aHR0cDovL21lZGlhLmRvbXkucGwvaW1nL3pkamVjaWEvcGFydG5lcnNpbi8xL3BhcnRuZXJzaW5fbXNfNTcwMzIxXzEuanBnI3Y9MV8zODAyODkyNDE1/3x2_xs:fill_and_crop/mieszkanie-na-sprzedaz-gdansk-srodmiescie-95-m.jpg,2023,wtórny,Co Miejskie,6,1,0,0,1,1,1,0,0,0,54.35584,18.66169,4989.61,5000.87,,5000.63,4997.18,
Gdańsk,Stara Stocznia,2070773,95.0,4,5.0,https://www.morizon.pl/oferta/sprzedaz-mieszkanie-gdansk-srodmiescie-stara-stocznia-95m2-mzn2045376632,https://img1.staticmorizon.com.pl/thumb/aHR0cDovL21lZGlhLmRvbXkucGwvaW1nL3pkamVjaWEvcGFydG5lcnNpbi9jL3BhcnRuZXJzaW5fbXNfNzA2Mzc2XzEuanBnI3Y9MV8zODAyODkyMTcy/3x2_xs:fill_and_crop/mieszkanie-na-sprzedaz-gdansk-srodmiescie-95-m.jpg,2023,pierwotny,Co Miejskie,6,1,0,0,1,1,1,0,0,0,54.35584,18.66169,4989.61,5000.87,,5000.63,4997.18,
Gdańsk,Bolesława Krzywoustego,2090000,79.0,3,2.0,https://www.morizon.pl/oferta/sprzedaz-mieszkanie-gdansk-przymorze-boleslawa-krzywoustego-79m2-mzn2045295497,https://img1.staticmorizon.com.pl/thumb/aHR0cDovL21lZGlhLmRvbXkucGwvaW1nL3pkamVjaWEvZXN0YXRpYy8yL2VzdGF0aWNfbXNfT045NzUyMTdfMS5qcGcjdj0xXzM3OTQ5NTI3Njc=/3x2_xs:fill_and_crop/mieszkanie-na-sprzedaz-gdansk-przymorze-79-m.jpg,2011,wtórny,Co Miejskie,4,1,0,1,1,1,1,1,1,0,54.41373,18.58229,5000.26,5011.52,,5011.27,5007.83,
Gdańsk,Bolesława Leśmiana,2380000,103.0,3,4.0,https://www.morizon.pl/oferta/sprzedaz-mieszkanie-gdansk-wrzeszcz-boleslawa-lesmiana-103m2-mzn2044622427,https://img1.staticmorizon.com.pl/thumb/aHR0cDovL21lZGlhLmRvbXkucGwvaW1nL3pkamVjaWEvcGFydG5lcnNpbi9lL3BhcnRuZXJzaW5fbXNfOTQ1MzM1XzEuanBnI3Y9MV8zNzkwODQ0ODkx/3x2_xs:fill_and_crop/mieszkanie-na-sprzedaz-gdansk-wrzeszcz-103-m.jpg,2021,wtórny,Co Miejskie,6,1,0,1,1,1,0,0,0,0,54.38153,18.58754,4998.11,5009.37,,5009.12,5005.68,
Gdańsk,Wrzeszcz,2640359,130.0,5,9.0,https://www.morizon.pl/oferta/sprzedaz-mieszkanie-gdansk-wrzeszcz-130m2-mzn2045354672,https://img1.staticmorizon.com.pl/thumb/aHR0cDovL21lZGlhLmRvbXkucGwvaW1nL3pkamVjaWEvcGFydG5lcnNpbi81L3BhcnRuZXJzaW5fbXNfOTgwNjg4XzEuanBnI3Y9MV8zODAyODkyNTQ3/3x2_xs:fill_and_crop/mieszkanie-na-sprzedaz-gdansk-wrzeszcz-130-m.jpg,2025,wtórny,Co Miejskie,10,0,0,0,1,1,0,0,0,0,54.38895,18.6234,4995.01,5006.27,,5006.03,5002.58,
Gdańsk,Sienna Grobla,3276000,130.0,4,2.0,https://www.morizon.pl/oferta/sprzedaz-mieszkanie-gdansk-srodmiescie-sienna-grobla-130m2-mzn2045354670,https://img1.staticmorizon.com.pl/thumb/aHR0cDovL21lZGlhLmRvbXkucGwvaW1nL3pkamVjaWEvcGFydG5lcnNpbi9iL3BhcnRuZXJzaW5fbXNfNTUwNTMyXzEuanBnI3Y9MV8zNzkyMTIwODM3/3x2_xs:fill_and_crop/mieszkanie-na-sprzedaz-gdansk-srodmiescie-130-m.jpg,2023,wtórny,Co Miejskie,5,0,0,1,1,1,0,0,0,0,54.35671,18.66722,4989.12,5000.38,,5000.14,4996.69,
Gdańsk,Przytulna,575000,37.0,2,0.0,https://www.morizon.pl/oferta/sprzedaz-mieszkanie-gdansk-jasien-przytulna-37m2-mzn2044920819,https://img1.staticmorizon.com.pl/thumb/aHR0cDovL21lZGlhLmRvbXkucGwvaW1nL3pkamVjaWEvbW9yemUvMS9tb3J6ZV9tc19QQU40OTY0MzRfMS5qcGcjdj0xXzM4MDAwNDgwNjg=/3x2_xs:fill_and_crop/mieszkanie-na-sprzedaz-gdansk-jasien-37-m.jpg,2017,wtórny,Co Miejskie,5,1,1,1,1,1,0,0,0,1,54.34978,18.5347,5001.61,5012.86,,5012.63,5009.18,
Gdańsk,Letnica,1590000,85.0,3,15.0,https://www.morizon.pl/oferta/sprzedaz-mieszkanie-gdansk-letnica-85m2-mzn2044736387,https://img1.staticmorizon.com.pl/thumb/aHR0cDovL21lZGlhLmRvbXkucGwvaW1nL3pkamVjaWEvZm9ycGlrL2YvZm9ycGlrX21zXzk0NTMyNl8xLmpwZyN2PTFfMzc4ODYzMDQ1Nw==/3x2_xs:fill_and_crop/mieszkanie-na-sprzedaz-gdansk-letnica-85-m.jpg,2021,wtórny,Co Miejskie,17,1,1,0,1,1,0,1,0,0,54.39538,18.64324,4993.42,5004.68,,5004.43,5000.99,
Gdańsk,Jagiellońska,430000,30.0,1,0.0,https://www.morizon.pl/oferta/sprzedaz-mieszkanie-gdansk-przymorze-jagiellonska-30m2-mzn2045913990,https://img1.staticmorizon.com.pl/thumb/aHR0cDovL21lZGlhLmRvbXkucGwvaW1nL3pkamVjaWEvbGRrL2EvbGRrX21zX0xESzQ5MjE4NV8xLmpwZyN2PTFfMzc4NTIwNzA1Ng==/3x2_xs:fill_and_crop/kawalerka-na-sprzedaz-gdansk-przymorze-30-m.jpg,-1,wtórny,Co Miejskie,10,1,0,0,1,1,0,1,0,0,54.4133432,18.5972609,4998.79,5010.05,,5009.8,5006.36,
Gdańsk,Grobla III,656000,31.0,1,1.0,https://www.morizon.pl/oferta/sprzedaz-mieszkanie-pomorskie-gdansk-grobla-iii-31m2-mzn2045873876,https://img1.staticmorizon.com.pl/thumb/aHR0cDovL21lZGlhLmRvbXkucGwvaW1nL3pkamVjaWEvZ21nNDYxNDQzLzUvZ21nNDYxNDQzX21zXzElMjUyRjE4MzI3JTI1MkZPTVNfMS5qcGcjdj0xXzM3OTA3NjM4MDI=/3x2_xs:fill_and_crop/kawalerka-na-sprzedaz-gdansk-grobla-iii-31-m.jpg,1960,wtórny,C.O. Z SIECI MIEJSKIEJ,3,0,0,0,1,1,0,0,0,0,54.3521974,18.6543542,4990.14,5001.4,,5001.15,4997.71,
Gdańsk,Wrocławska,1137000,102.0,3,1.0,https://www.morizon.pl/oferta/sprzedaz-mieszkanie-gdansk-aniolki-wroclawska-102m2-mzn2045127449,https://img1.staticmorizon.com.pl/thumb/aHR0cDovL21lZGlhLmRvbXkucGwvaW1nL3pkamVjaWEvbW9yemUvYy9tb3J6ZV9tc19QQU4zOTc1NThfMS5qcGcjdj0xXzM3OTc2NjY0MDA=/3x2_xs:fill_and_crop/mieszkanie-na-sprzedaz-gdansk-aniolki-102-m.jpg,1930,wtórny,Gazowe,1,1,1,0,0,1,0,0,0,1,54.3560087,18.6338081,4992.32,5003.58,,5003.34,4999.89,
Gdańsk,Bolesława Leśmiana,775000,32.0,1,1.0,https://www.morizon.pl/oferta/sprzedaz-mieszkanie-gdansk-wrzeszcz-boleslawa-lesmiana-32m2-mzn2045876301,https://img1.staticmorizon.com.pl/thumb/aHR0cDovL21lZGlhLmRvbXkucGwvaW1nL3pkamVjaWEvYm5ob21lL2MvYm5ob21lX21zXzkxMDk5M18xLmpwZyN2PTFfMzc0NjAwNjIwOA==/3x2_xs:fill_and_crop/kawalerka-na-sprzedaz-gdansk-wrzeszcz-32-m.jpg,-1,wtórny,Co Miejskie,7,1,0,0,1,0,0,0,0,1,54.3821893,18.5891752,4997.98,5009.24,,5009.0,5005.55,
Gdańsk,Romana Dmowskiego,1100000,84.0,4,3.0,https://www.morizon.pl/oferta/sprzedaz-mieszkanie-gdansk-wrzeszcz-romana-dmowskiego-84m2-mzn2045898215,https://img1.staticmorizon.com.pl/thumb/aHR0cDovL21lZGlhLmRvbXkucGwvaW1nL3pkamVjaWEvbWFndXJhLzQvbWFndXJhX21zXzYzXzYuanBlZyN2PTFfMzc0NDcyMjIxMA==/3x2_xs:fill_and_crop/mieszkanie-na-sprzedaz-gdansk-wrzeszcz-84-m.jpg,1960,wtórny,Miejskie,3,1,1,1,0,1,0,1,0,0,54.3795,18.6078,4996.04,5007.3,,5007.06,5003.61,
Gdańsk,Wałowa,519000,22.0,1,2.0,https://www.morizon.pl/oferta/sprzedaz-mieszkanie-gdansk-srodmiescie-walowa-22m2-mzn2044722576,https://img1.staticmorizon.com.pl/thumb/aHR0cDovL21lZGlhLmRvbXkucGwvaW1nL3pkamVjaWEvdGVrdG9uY2FwaS8yL3Rla3RvbmNhcGlfbXNfVEM5MDgwNjdfMS5qcGcjdj0xXzM4MDg1NTAwNjM=/3x2_xs:fill_and_crop/kawalerka-na-sprzedaz-gdansk-srodmiescie-22-m.jpg,1920,wtórny,Co Miejskie,3,1,0,0,1,0,0,0,0,0,54.35893,18.65059,4990.85,5002.11,,5001.86,4998.41,
Gdańsk,Słoneczna Dolina,670000,52.0,2,0.0,https://www.morizon.pl/oferta/sprzedaz-mieszkanie-gdansk-siedlce-sloneczna-dolina-52m2-mzn2045696614,https://img1.staticmorizon.com.pl/thumb/aHR0cDovL21lZGlhLmRvbXkucGwvaW1nL3pkamVjaWEvdHlzemtpZXcvYS90eXN6a2lld19tc19UWTI1NjI0OV8xLmpwZyN2PTFfMzgwMzExMjU2Nw==/3x2_xs:fill_and_crop/mieszkanie-na-sprzedaz-gdansk-siedlce-52-m.jpg,2002,wtórny,Co Miejskie,3,1,1,0,0,1,0,1,0,0,54.3435009,18.5887656,4996.05,5007.31,,5007.07,5003.62,
Gdańsk,Jacka Malczewskiego,769000,42.0,2,3.0,https://www.morizon.pl/oferta/sprzedaz-mieszkanie-gdansk-siedlce-jacka-malczewskiego-42m2-mzn2045775243,https://img1.staticmorizon.com.pl/thumb/aHR0cDovL21lZGlhLmRvbXkucGwvaW1nL3pkamVjaWEvbW9yemUvNS9tb3J6ZV9tc19QQU42OTg3MjhfMS5qcGcjdj0xXzM3ODg2Mzk5OTg=/3x2_xs:fill_and_crop/mieszkanie-na-sprzedaz-gdansk-siedlce-42-m.jpg,2012,wtórny,Co Miejskie,3,0,1,0,1,1,0,1,0,0,54.3468119,18.6188842,4993.3,5004.56,,5004.31,5000.87,
Gdańsk,Jasieńska,1040000,75.0,3,0.0,https://www.morizon.pl/oferta/sprzedaz-mieszkanie-gdansk-jasien-jasienska-75m2-mzn2045243470,https://img1.staticmorizon.com.pl/thumb/aHR0cDovL21lZGlhLmRvbXkucGwvaW1nL3pkamVjaWEvZG9taC9iL2RvbWhfbXNfREg0NTkzNTdfMS5qcGcjdj0xXzM4MDg3NTM4OTU=/3x2_xs:fill_and_crop/mieszkanie-na-sprzedaz-gdansk-jasien-75-m.jpg,2011,wtórny,Co Miejskie,2,1,0,0,1,1,1,0,1,1,54.34601,18.54996,4999.94,5011.19,,5010.95,5007.51,
Gdańsk,Wileńska,694000,67.0,3,10.0,https://www.morizon.pl/oferta/sprzedaz-mieszkanie-gdansk-piecki-migowo-wilenska-67m2-mzn2045718514,https://img1.staticmorizon.com.pl/thumb/aHR0cDovL21lZGlhLmRvbXkucGwvaW1nL3pkamVjaWEvbGRrL2MvbGRrX21zX0xESzk4MTcyOV8xLmpwZyN2PTFfMzc4NzU1NzQ2Mw==/3x2_xs:fill_and_crop/mieszkanie-na-sprzedaz-gdansk-piecki-migowo-67-m.jpg,1978,wtórny,Co Miejskie,10,1,1,0,1,0,0,1,0,0,54.3616,18.59964,4995.92,5007.18,,5006.93,5003.49,
Gdańsk,Mariana Seredyńskiego,1240000,107.0,4,1.0,https://www.morizon.pl/oferta/sprzedaz-mieszkanie-gdansk-srodmiescie-mariana-seredynskiego-107m2-mzn2045868464,https://img1.staticmorizon.com.pl/thumb/aHR0cDovL21lZGlhLmRvbXkucGwvaW1nL3pkamVjaWEvcGFydG5lcnNpbi81L3BhcnRuZXJzaW5fbXNfNDU0NDE0XzEuanBnI3Y9MV8zNzQ0MTU2MDQ2/3x2_xs:fill_and_crop/mieszkanie-na-sprzedaz-gdansk-srodmiescie-107-m.jpg,1904,wtórny,Gazowe,3,1,1,0,0,1,0,1,0,0,54.3501523,18.6664552,4988.86,5000.12,,4999.88,4996.43,
Gdańsk,Siedlce,1700000,147.0,6,3.0,https://www.morizon.pl/oferta/sprzedaz-mieszkanie-gdansk-siedlce-147m2-mzn2042424434,https://img1.staticmorizon.com.pl/thumb/aHR0cDovL21lZGlhLmRvbXkucGwvaW1nL3pkamVjaWEvZ2FuZGcvMC9nYW5kZ19tc18zOSUyNTJGNzA2NyUyNTJGT01TXzEuanBnI3Y9MV8zNzk4Nzc2OTA3/3x2_xs:fill_and_crop/mieszkanie-na-sprzedaz-gdansk-siedlce-147-m.jpg,1997,wtórny,C.O. Z SIECI MIEJSKIEJ,4,0,0,1,0,1,0,0,0,0,54.34892797,18.62616062,4992.7,5003.96,,5003.72,5000.27,
Gdańsk,Chmielna,1785015,56.0,1,6.0,https://www.morizon.pl/oferta/sprzedaz-mieszkanie-gdansk-srodmiescie-chmielna-56m2-mzn2044960651,https://img1.staticmorizon.com.pl/thumb/aHR0cDovL21lZGlhLmRvbXkucGwvaW1nL3pkamVjaWEvcGFydG5lcnNpbi83L3BhcnRuZXJzaW5fbXNfNjYyNDcwXzEuanBnI3Y9MV8zODAyNjUxMjc1/3x2_xs:fill_and_crop/kawalerka-na-sprzedaz-gdansk-srodmiescie-56-m.jpg,2024,pierwotny,Co Miejskie,6,0,0,0,1,0,0,0,0,0,54.3481485,18.6578566,4989.59,5000.85,,5000.61,4997.16,
Gdańsk,Chmielna,1943515,66.0,1,3.0,https://www.morizon.pl/oferta/sprzedaz-mieszkanie-gdansk-srodmiescie-chmielna-66m2-mzn2044960650,https://img1.staticmorizon.com.pl/thumb/aHR0cDovL21lZGlhLmRvbXkucGwvaW1nL3pkamVjaWEvcGFydG5lcnNpbi9hL3BhcnRuZXJzaW5fbXNfNDcyODczXzEuanBnI3Y9MV8zODAyNjUxMjU1/3x2_xs:fill_and_crop/kawalerka-na-sprzedaz-gdansk-srodmiescie-66-m.jpg,2024,pierwotny,Co Miejskie,6,0,0,0,1,0,0,0,0,0,54.3481485,18.6578566,4989.59,5000.85,,5000.61,4997.16,
Gdańsk,Żywiecka,599000,45.0,2,1.0,https://www.morizon.pl/oferta/sprzedaz-mieszkanie-gdansk-wrzeszcz-zywiecka-45m2-mzn2045830170,https://img1.staticmorizon.com.pl/thumb/aHR0cDovL21lZGlhLmRvbXkucGwvaW1nL3pkamVjaWEvZ21nNDYwNzkzLzkvZ21nNDYwNzkzX21zXzg5NTg2MF8xLmpwZyN2PTFfMzc0ODc4NTcxMg==/3x2_xs:fill_and_crop/mieszkanie-na-sprzedaz-gdansk-wrzeszcz-45-m.jpg,-1,wtórny,Gazowe,2,1,1,0,0,1,0,0,0,1,54.38554,18.62447,4994.74,5006.0,,5005.75,5002.3,
Gdańsk,Aleja Generała Józefa Hallera,840816,48.0,2,1.0,https://www.morizon.pl/oferta/sprzedaz-mieszkanie-gdansk-wrzeszcz-gen-jozefa-hallera-48m2-mzn2045943818,https://img1.staticmorizon.com.pl/thumb/aHR0cDovL21lZGlhLmRvbXkucGwvaW1nL3pkamVjaWEvYm5ob21lYnJvMS9jL2JuaG9tZWJybzFfbXNfMTc2MjcxLTFfOS5qcGcjdj0yXzM3NDg3OTg0Mjg=/3x2_xs:fill_and_crop/mieszkanie-na-sprzedaz-gdansk-wrzeszcz-48-m.jpg,2025,pierwotny,-1,10,0,0,0,1,0,0,0,1,0,54.3892,18.6228,4995.08,5006.34,,5006.1,5002.65,
Gdańsk,Chmielna,1398600,74.0,4,7.0,https://www.morizon.pl/oferta/sprzedaz-mieszkanie-pomorskie-gdansk-chmielna-74m2-mzn2045899844,https://img1.staticmorizon.com.pl/thumb/aHR0cDovL21lZGlhLmRvbXkucGwvaW1nL3pkamVjaWEvbW9yZWFsL2MvbW9yZWFsX21zX0VDODMyNTg2XzEuanBnI3Y9MV8zNzg1MTQ3NzAy/3x2_xs:fill_and_crop/mieszkanie-na-sprzedaz-gdansk-chmielna-74-m.jpg,2013,wtórny,-1,8,0,0,0,0,0,0,0,0,0,54.34314,18.6545,4989.66,5000.92,,5000.68,4997.23,
Gdańsk,Aleja Grunwaldzka,589000,38.0,2,9.0,https://www.morizon.pl/oferta/sprzedaz-mieszkanie-gdansk-oliwa-aleja-grunwaldzka-38m2-mzn2045841831,https://img1.staticmorizon.com.pl/thumb/aHR0cDovL21lZGlhLmRvbXkucGwvaW1nL3pkamVjaWEvbW9yemUvOS9tb3J6ZV9tc19QQU41NzQ5NjZfMS5qcGcjdj0xXzM3NjA1MTQwMTE=/3x2_xs:fill_and_crop/mieszkanie-na-sprzedaz-gdansk-oliwa-38-m.jpg,1970,wtórny,Co Miejskie,10,0,1,0,1,1,0,1,0,0,54.419035,18.5660282,5002.11,5013.37,,5013.12,5009.67,
Gdańsk,Kazimierza Wielkiego,699000,55.0,3,1.0,https://www.morizon.pl/oferta/sprzedaz-mieszkanie-gdansk-orunia-sw-wojciech-lipce-kazimierza-wielkiego-55m2-mzn2045849372,https://img1.staticmorizon.com.pl/thumb/aHR0cDovL21lZGlhLmRvbXkucGwvaW1nL3pkamVjaWEvbzEzMjc5MS81L28xMzI3OTFfbXNfRUMxMTExMTE2MjU0NDdfMS5qcGcjdj0xXzM3NDAxMzQzMzk=/3x2_xs:fill_and_crop/mieszkanie-na-sprzedaz-gdansk-orunia-sw-wojciech-lipce-55-m.jpg,2020,wtórny,Co Miejskie,3,1,1,1,1,1,1,1,0,0,54.3012,18.632,4989.71,5000.96,,5000.72,4997.27,
Gdańsk,Chmielna,3456950,98.0,3,2.0,https://www.morizon.pl/oferta/sprzedaz-mieszkanie-gdansk-srodmiescie-chmielna-98m2-mzn2036537311,https://img1.staticmorizon.com.pl/thumb/aHR0cDovL21lZGlhLmRvbXkucGwvaW1nL3pkamVjaWEvdGVrdG9uY2FwaS9iL3Rla3RvbmNhcGlfbXNfVEMyMTY5MzlfMS5qcGcjdj0xXzM3OTQ2NzAyMjM=/3x2_xs:fill_and_crop/mieszkanie-na-sprzedaz-gdansk-srodmiescie-98-m.jpg,2019,wtórny,Co Miejskie,7,1,0,0,1,1,1,1,0,0,54.34636,18.65586,4989.7,5000.95,,5000.71,4997.26,
Gdańsk,Ujeścisko,560000,53.0,3,2.0,https://www.morizon.pl/oferta/sprzedaz-mieszkanie-gdansk-ujescisko-lostowice-53m2-mzn2045856484,https://img1.staticmorizon.com.pl/thumb/aHR0cDovL21lZGlhLmRvbXkucGwvaW1nL3pkamVjaWEvZ21nNDYxODkxL2MvZ21nNDYxODkxX21zXzQ5MTQwM18xLmpwZyN2PTFfMzc0MTczNTc1Mw==/3x2_xs:fill_and_crop/mieszkanie-na-sprzedaz-gdansk-ujescisko-lostowice-53-m.jpg,2025,pierwotny,-1,3,0,0,0,0,1,0,1,1,0,54.3302454,18.5903984,4995.22,5006.47,,5006.23,5002.79,
Gdańsk,Odrzańska,650000,57.0,3,0.0,https://www.morizon.pl/oferta/sprzedaz-mieszkanie-gdansk-chelm-odrzanska-57m2-mzn2046146082,https://img1.staticmorizon.com.pl/thumb/aHR0cDovL21lZGlhLmRvbXkucGwvaW1nL3pkamVjaWEvcG0yMS9hL3BtMjFfbXNfTUEwNTIzOV8xLmpwZyN2PTFfMzgwODgzMTI0Nw==/3x2_xs:fill_and_crop/mieszkanie-na-sprzedaz-gdansk-chelm-57-m.jpg,1960,wtórny,Gazowe,2,0,1,1,1,1,0,0,0,0,54.3436259,18.6267266,4992.38,5003.64,,5003.39,4999.95,
Gdańsk,Ferdynanda Magellana,718000,52.0,2,2.0,https://www.morizon.pl/oferta/sprzedaz-mieszkanie-gdansk-wrzeszcz-magellana-52m2-mzn2045856486,https://img1.staticmorizon.com.pl/thumb/aHR0cDovL21lZGlhLmRvbXkucGwvaW1nL3pkamVjaWEvZ21nNDYxODkxL2QvZ21nNDYxODkxX21zXzI0MTEzN18xLmpwZyN2PTFfMzc0Mjk4MTgyOQ==/3x2_xs:fill_and_crop/mieszkanie-na-sprzedaz-gdansk-wrzeszcz-52-m.jpg,2025,pierwotny,-1,4,0,0,0,0,1,0,0,1,1,54.3655826,18.5824705,4997.79,5009.04,,5008.8,5005.35,
Gdańsk,Stara Stocznia,1632552,73.0,3,1.0,https://www.morizon.pl/oferta/sprzedaz-mieszkanie-gdansk-srodmiescie-stara-stocznia-73m2-mzn2045282510,https://img1.staticmorizon.com.pl/thumb/aHR0cDovL21lZGlhLmRvbXkucGwvaW1nL3pkamVjaWEvcGFydG5lcnNpbi9jL3BhcnRuZXJzaW5fbXNfNDY0NTcwXzEuanBnI3Y9MV8zODAyODkyMzkw/3x2_xs:fill_and_crop/mieszkanie-na-sprzedaz-gdansk-srodmiescie-73-m.jpg,2023,wtórny,Co Miejskie,6,1,0,0,1,0,1,0,0,0,54.35584,18.66169,4989.61,5000.87,,5000.63,4997.18,
Gdańsk,Chmielna,2030800,77.0,1,6.0,https://www.morizon.pl/oferta/sprzedaz-mieszkanie-gdansk-srodmiescie-chmielna-77m2-mzn2044960648,https://img1.staticmorizon.com.pl/thumb/aHR0cDovL21lZGlhLmRvbXkucGwvaW1nL3pkamVjaWEvcGFydG5lcnNpbi9jL3BhcnRuZXJzaW5fbXNfMTgzMDg5XzEuanBnI3Y9MV8zODAyNjU5Mzkx/3x2_xs:fill_and_crop/kawalerka-na-sprzedaz-gdansk-srodmiescie-77-m.jpg,2024,pierwotny,Co Miejskie,6,0,0,0,1,0,0,0,0,0,54.3481485,18.6578566,4989.59,5000.85,,5000.61,4997.16,
Gdańsk,Mostek,875000,40.0,2,2.0,https://www.morizon.pl/oferta/sprzedaz-mieszkanie-gdansk-srodmiescie-mostek-40m2-mzn2045844381,https://img1.staticmorizon.com.pl/thumb/aHR0cDovL21lZGlhLmRvbXkucGwvaW1nL3pkamVjaWEvbzEzNzQ3NC8zL28xMzc0NzRfbXNfNDYxMjU5XzEuanBnI3Y9MV8zNzY4OTEyODA5/3x2_xs:fill_and_crop/mieszkanie-na-sprzedaz-gdansk-srodmiescie-40-m.jpg,2024,wtórny,-1,4,1,0,0,1,0,0,1,0,0,54.3516195,18.6754656,4988.06,4999.32,,4999.08,4995.63,
Gdańsk,Aleja Generała Józefa Hallera,2070274,112.0,5,8.0,https://www.morizon.pl/oferta/sprzedaz-mieszkanie-gdansk-wrzeszcz-gen-jozefa-hallera-112m2-mzn2046190272,https://img1.staticmorizon.com.pl/thumb/aHR0cDovL21lZGlhLmRvbXkucGwvaW1nL3pkamVjaWEvYm5ob21lYnJvMS9iL2JuaG9tZWJybzFfbXNfMTc2MjcxLTNfMS5qcGcjdj0xXzM3ODk3MTQ4MTY=/3x2_xs:fill_and_crop/mieszkanie-na-sprzedaz-gdansk-wrzeszcz-112-m.jpg,2025,pierwotny,-1,10,0,0,0,1,0,0,0,0,0,54.3892,18.6228,4995.08,5006.34,,5006.1,5002.65,
Gdańsk,Marszałka Ferdynanda Focha,1350000,140.0,5,2.0,https://www.morizon.pl/oferta/sprzedaz-mieszkanie-gdansk-aniolki-focha-140m2-mzn2045626494,https://img1.staticmorizon.com.pl/thumb/aHR0cDovL21lZGlhLmRvbXkucGwvaW1nL3pkamVjaWEvYm43MzQ2MS8yL2JuNzM0NjFfbXNfOC0xXzI2LmpwZWcjdj0xXzM3NDM0MzYzMTk=/3x2_xs:fill_and_crop/mieszkanie-na-sprzedaz-gdansk-aniolki-140-m.jpg,1994,wtórny,Miejskie,2,0,1,0,0,1,0,1,0,0,54.3591,18.6266,4993.18,5004.44,,5004.19,5000.75,
Gdańsk,Wilhelma Stryjewskiego,400000,34.0,2,0.0,https://www.morizon.pl/oferta/sprzedaz-mieszkanie-gdansk-stogi-wilhelma-stryjewskiego-34m2-mzn2045587294,https://img1.staticmorizon.com.pl/thumb/aHR0cDovL21lZGlhLmRvbXkucGwvaW1nL3pkamVjaWEvbW9yemUvZS9tb3J6ZV9tc19QQU43NTAwMzhfMS5qcGcjdj0xXzM4MDg3ODIwNDQ=/3x2_xs:fill_and_crop/mieszkanie-na-sprzedaz-gdansk-stogi-34-m.jpg,1970,wtórny,Co Miejskie,4,0,1,0,0,0,0,0,0,0,54.36102,18.71712,4984.51,4995.77,,4995.52,4992.07,
Gdańsk,Morenowe Wzgórze,849000,72.0,3,0.0,https://www.morizon.pl/oferta/sprzedaz-mieszkanie-gdansk-piecki-migowo-morenowe-wzgorze-72m2-mzn2045912919,https://img1.staticmorizon.com.pl/thumb/aHR0cDovL21lZGlhLmRvbXkucGwvaW1nL3pkamVjaWEvZ21nNDYwNTgxLzMvZ21nNDYwNTgxX21zX1NINjA4MDQ4XzEuanBnI3Y9MV8zNzY2NTA3Nzc3/3x2_xs:fill_and_crop/mieszkanie-na-sprzedaz-gdansk-piecki-migowo-72-m.jpg,2015,wtórny,Co Miejskie,3,1,0,0,0,0,1,0,1,0,54.3505762,18.565513,4998.67,5009.92,,5009.68,5006.23,
Gdańsk,Angielska Grobla,1099000,45.0,2,5.0,https://www.morizon.pl/oferta/sprzedaz-mieszkanie-gdansk-srodmiescie-angielska-grobla-45m2-mzn2045375599,https://img1.staticmorizon.com.pl/thumb/aHR0cDovL21lZGlhLmRvbXkucGwvaW1nL3pkamVjaWEvbW9yemUvMi9tb3J6ZV9tc19QQU42MzgxMDZfMS5qcGcjdj0xXzM3NzAxNDQ0NDU=/3x2_xs:fill_and_crop/mieszkanie-na-sprzedaz-gdansk-srodmiescie-45-m.jpg,2021,wtórny,Co Miejskie,6,1,1,0,1,1,1,1,0,0,54.35038,18.6619,4989.32,5000.57,,5000.33,4996.88,
Gdańsk,Obrońców Wybrzeża,3720000,155.0,6,4.0,https://www.morizon.pl/oferta/sprzedaz-mieszkanie-gdansk-przymorze-obroncow-wybrzeza-155m2-mzn2044489905,https://img1.staticmorizon.com.pl/thumb/aHR0cDovL21lZGlhLmRvbXkucGwvaW1nL3pkamVjaWEvbW9yemUvNC9tb3J6ZV9tc19QQU42NTQ2MzFfMS5qcGcjdj0xXzM3NzAxNzI0MTc=/3x2_xs:fill_and_crop/mieszkanie-na-sprzedaz-gdansk-przymorze-155-m.jpg,2020,wtórny,Co Miejskie,10,0,1,1,1,1,0,1,0,0,54.41001,18.59511,4998.83,5010.09,,5009.84,5006.4,
Gdańsk,Kowalska,649000,52.0,2,4.0,https://www.morizon.pl/oferta/sprzedaz-mieszkanie-gdansk-srodmiescie-kowalska-52m2-mzn2045780148,https://img1.staticmorizon.com.pl/thumb/aHR0cDovL21lZGlhLmRvbXkucGwvaW1nL3pkamVjaWEvbzEzMjc5MS9jL28xMzI3OTFfbXNfRUMxMTExMTEyMjkyMTFfMS5qcGcjdj0xXzM3Njc3OTMwNzY=/3x2_xs:fill_and_crop/mieszkanie-na-sprzedaz-gdansk-srodmiescie-52-m.jpg,-1,wtórny,-1,4,1,1,0,0,0,0,1,0,0,54.3531348,18.6485775,4990.75,5002.01,,5001.76,4998.31,
Gdańsk,Aleja Jana Pawła II,850000,49.0,2,4.0,https://www.morizon.pl/oferta/sprzedaz-mieszkanie-gdansk-zaspa-jana-pawla-ii-49m2-mzn2045840555,https://img1.staticmorizon.com.pl/thumb/aHR0cDovL21lZGlhLmRvbXkucGwvaW1nL3pkamVjaWEvaW50ZWdyb2IvMy9pbnRlZ3JvYl9tc19JVDAxMzM3XzEuanBnI3Y9MV8zODA4ODM1MzEw/3x2_xs:fill_and_crop/mieszkanie-na-sprzedaz-gdansk-zaspa-49-m.jpg,-1,wtórny,C.o. miejskie,4,1,1,1,1,1,0,0,1,0,54.390711,18.598805,4997.49,5008.75,,5008.5,5005.05,
Gdańsk,Szafarnia,4300000,116.0,4,3.0,https://www.morizon.pl/oferta/sprzedaz-mieszkanie-gdansk-srodmiescie-szafarnia-116m2-mzn2044710838,https://img1.staticmorizon.com.pl/thumb/aHR0cDovL21lZGlhLmRvbXkucGwvaW1nL3pkamVjaWEvcGFydG5lcnNpbi8yL3BhcnRuZXJzaW5fbXNfMzk0OTg4XzEuanBnI3Y9MV8zNzQ0NDg4ODEw/3x2_xs:fill_and_crop/mieszkanie-na-sprzedaz-gdansk-srodmiescie-116-m.jpg,2014,wtórny,Co Miejskie,5,0,0,1,1,1,0,1,1,0,54.34993,18.66118,4989.36,5000.62,,5000.37,4996.93,
Gdańsk,Piastowska,2290000,74.0,2,2.0,https://www.morizon.pl/oferta/sprzedaz-mieszkanie-gdansk-zabianka-wejhera-jelitkowo-tysiaclecia-piastowska-74m2-mzn2045072664,https://img1.staticmorizon.com.pl/thumb/aHR0cDovL21lZGlhLmRvbXkucGwvaW1nL3pkamVjaWEvcGFydG5lcnNpbi85L3BhcnRuZXJzaW5fbXNfMjM5MTYyXzEuanBnI3Y9MV8zNzQ2NTAwNDA2/3x2_xs:fill_and_crop/mieszkanie-na-sprzedaz-gdansk-zabianka-wejhera-jelitkowo-tysiaclecia-74-m.jpg,2007,wtórny,Co Własne,3,1,0,0,1,0,1,1,0,0,54.4159426,18.5854981,5000.06,5011.32,,5011.08,5007.63,
Gdańsk,Ofiar Grudnia 70,519000,32.0,1,4.0,https://www.morizon.pl/oferta/sprzedaz-mieszkanie-gdansk-ujescisko-lostowice-ofiar-grudnia-70-32m2-mzn2045376126,https://img1.staticmorizon.com.pl/thumb/aHR0cDovL21lZGlhLmRvbXkucGwvaW1nL3pkamVjaWEvbW9yemUvYi9tb3J6ZV9tc19QQU42ODk1MjdfMS5qcGcjdj0xXzM3MTQ2NDYzMTQ=/3x2_xs:fill_and_crop/kawalerka-na-sprzedaz-gdansk-ujescisko-lostowice-32-m.jpg,2024,wtórny,Co Miejskie,4,0,1,0,1,1,0,1,0,0,54.30735,18.58164,4994.9,5006.15,,5005.91,5002.47,
Gdańsk,Świętego Ducha,1199000,55.0,3,2.0,https://www.morizon.pl/oferta/sprzedaz-mieszkanie-gdansk-srodmiescie-sw-ducha-55m2-mzn2044365339,https://img1.staticmorizon.com.pl/thumb/aHR0cDovL21lZGlhLmRvbXkucGwvaW1nL3pkamVjaWEvcGFydG5lcnNpbi81L3BhcnRuZXJzaW5fbXNfNTMyOTk1XzEuanBnI3Y9MV8zNjUwMTgzNzk2/3x2_xs:fill_and_crop/mieszkanie-na-sprzedaz-gdansk-srodmiescie-55-m.jpg,2010,wtórny,Co Miejskie,4,1,0,0,1,0,0,0,0,0,54.35033,18.65379,4990.1,5001.36,,5001.11,4997.67,
Gdańsk,Heleny,791125,63.0,3,1.0,https://www.morizon.pl/oferta/sprzedaz-mieszkanie-gdansk-osowa-heleny-63m2-mzn2045641135,https://img1.staticmorizon.com.pl/thumb/aHR0cDovL21lZGlhLmRvbXkucGwvaW1nL3pkamVjaWEvbzEwNTA3OC84L28xMDUwNzhfbXNfOTY5OTg2XzEuanBnI3Y9MV8zNzg0MDc1MzI0/3x2_xs:fill_and_crop/mieszkanie-na-sprzedaz-gdansk-osowa-63-m.jpg,2024,pierwotny,Gazowe,3,0,1,0,1,0,0,0,0,0,54.42252,18.47577,5011.03,5022.29,,5022.05,5018.6,
Gdańsk,Sienna Grobla,1800000,89.0,4,5.0,https://www.morizon.pl/oferta/sprzedaz-mieszkanie-gdansk-srodmiescie-sienna-grobla-89m2-mzn2045128544,https://img1.staticmorizon.com.pl/thumb/aHR0cDovL21lZGlhLmRvbXkucGwvaW1nL3pkamVjaWEvcGFydG5lcnNpbi9mL3BhcnRuZXJzaW5fbXNfNjMxNDgzXzEuanBnI3Y9MV8zNzA2NDUyNjU1/3x2_xs:fill_and_crop/mieszkanie-na-sprzedaz-gdansk-srodmiescie-89-m.jpg,2024,wtórny,Co Miejskie,5,0,0,0,1,1,0,1,0,0,54.35671,18.66722,4989.12,5000.38,,5000.14,4996.69,
Gdańsk,Artura Grottgera,1272261,50.0,2,0.0,https://www.morizon.pl/oferta/sprzedaz-mieszkanie-gdansk-oliwa-artura-grottgera-50m2-mzn2044562742,https://img1.staticmorizon.com.pl/thumb/aHR0cDovL21lZGlhLmRvbXkucGwvaW1nL3pkamVjaWEvYm5ob21lYnJvMS9jL2JuaG9tZWJybzFfbXNfNjI3OTczXzE1LmpwZyN2PTJfMzc0NjU4MDI2Nw==/3x2_xs:fill_and_crop/mieszkanie-na-sprzedaz-gdansk-oliwa-50-m.jpg,2024,pierwotny,-1,3,0,0,0,0,0,0,0,0,1,54.39907,18.56619,5001.07,5012.33,,5012.09,5008.64,
Gdańsk,Bursztynowa,3500000,90.0,4,1.0,https://www.morizon.pl/oferta/sprzedaz-mieszkanie-gdansk-zabianka-wejhera-jelitkowo-tysiaclecia-bursztynowa-90m2-mzn2043138041,https://img1.staticmorizon.com.pl/thumb/aHR0cDovL21lZGlhLmRvbXkucGwvaW1nL3pkamVjaWEvcGFydG5lcnNpbi82L3BhcnRuZXJzaW5fbXNfNzE5NjYzNDM0XzEuanBnI3Y9MV8zNjczMDA1Mjc1/3x2_xs:fill_and_crop/mieszkanie-na-sprzedaz-gdansk-zabianka-wejhera-jelitkowo-tysiaclecia-90-m.jpg,2017,wtórny,Co Miejskie,3,1,0,0,1,1,1,0,1,1,54.4268444,18.5963633,4999.57,5010.83,,5010.58,5007.13,
Gdańsk,Sienna Grobla,1925000,77.0,3,1.0,https://www.morizon.pl/oferta/sprzedaz-mieszkanie-gdansk-srodmiescie-sienna-grobla-77m2-mzn2044104599,https://img1.staticmorizon.com.pl/thumb/aHR0cDovL21lZGlhLmRvbXkucGwvaW1nL3pkamVjaWEvcGFydG5lcnNpbi82L3BhcnRuZXJzaW5fbXNfNDYyNDYwXzEuanBnI3Y9MV8zNjA3NjAxODg4/3x2_xs:fill_and_crop/mieszkanie-na-sprzedaz-gdansk-srodmiescie-77-m.jpg,2023,wtórny,Co Miejskie,4,1,0,0,1,1,1,0,1,0,54.35203,18.64664,4990.88,5002.14,,5001.89,4998.44,
Gdańsk,Wyspa Sobieszewska,729000,61.0,3,1.0,https://www.morizon.pl/oferta/sprzedaz-mieszkanie-gdansk-wyspa-sobieszewska-61m2-mzn2041362853,https://img1.staticmorizon.com.pl/thumb/aHR0cDovL21lZGlhLmRvbXkucGwvaW1nL3pkamVjaWEvbWFyaXRpbW8vMi9tYXJpdGltb19tc180XzIxLmpwZyN2PTFfMzU4MjM5MTQzNw==/3x2_xs:fill_and_crop/mieszkanie-na-sprzedaz-gdansk-wyspa-sobieszewska-61-m.jpg,2025,pierwotny,Elektryczne,1,0,0,0,0,1,0,1,0,0,54.3118,18.9164,4962.7,4973.97,,4973.71,4970.26,
Gdańsk,Aleja Generała Józefa Hallera,2655455,126.0,4,10.0,https://www.morizon.pl/oferta/sprzedaz-mieszkanie-gdansk-wrzeszcz-gen-jozefa-hallera-126m2-mzn2044562749,https://img1.staticmorizon.com.pl/thumb/aHR0cDovL21lZGlhLmRvbXkucGwvaW1nL3pkamVjaWEvYm5ob21lYnJvMS9hL2JuaG9tZWJybzFfbXNfNzQxODQzXzEuanBnI3Y9MV8zNTM4MTE2OTMx/3x2_xs:fill_and_crop/mieszkanie-na-sprzedaz-gdansk-wrzeszcz-126-m.jpg,2026,pierwotny,-1,10,0,0,0,0,0,0,0,0,0,54.38894,18.62264,4995.09,5006.35,,5006.1,5002.65,
Gdańsk,Wojciecha Kiedrowskiego,769323,63.0,3,1.0,https://www.morizon.pl/oferta/sprzedaz-mieszkanie-gdansk-jasien-wojciecha-kiedrowskiego-63m2-mzn2045550333,https://img1.staticmorizon.com.pl/thumb/aHR0cDovL21lZGlhLmRvbXkucGwvaW1nL3pkamVjaWEvYm5ob21lYnJvMS9kL2JuaG9tZWJybzFfbXNfMjA0MTYyXzEuanBnI3Y9MV8zNjgxNTYwOTY5/3x2_xs:fill_and_crop/mieszkanie-na-sprzedaz-gdansk-jasien-63-m.jpg,2025,pierwotny,-1,4,0,0,0,0,0,0,0,0,0,54.34306,18.56899,4997.95,5009.2,,5008.96,5005.51,
Gdańsk,Wielkopolska,599000,44.0,3,5.0,https://www.morizon.pl/oferta/sprzedaz-mieszkanie-gdansk-ujescisko-lostowice-wielkopolska-44m2-mzn2046241166,https://img1.staticmorizon.com.pl/thumb/aHR0cDovL21lZGlhLmRvbXkucGwvaW1nL3pkamVjaWEvYXJ0ZmxhdC8xL2FydGZsYXRfbXNfNTEzNDgxXzEuanBnI3Y9MV8zODA4Njc1Nzgx/3x2_xs:fill_and_crop/mieszkanie-na-sprzedaz-gdansk-ujescisko-lostowice-44-m.jpg,2018,wtórny,Co Miejskie,5,1,0,0,1,1,0,1,0,0,54.3134785,18.5901091,4994.39,5005.64,,5005.41,5001.96,
Gdańsk,Obrońców Wybrzeża,1379000,78.0,3,9.0,https://www.morizon.pl/oferta/sprzedaz-mieszkanie-gdansk-przymorze-obroncow-wybrzeza-78m2-mzn2046214997,https://img1.staticmorizon.com.pl/thumb/aHR0cDovL21lZGlhLmRvbXkucGwvaW1nL3pkamVjaWEvYm5taW8vOC9ibm1pb19tc185MjA1MDlfMS5qcGcjdj0xXzM3OTQ3OTA3Njk=/3x2_xs:fill_and_crop/mieszkanie-na-sprzedaz-gdansk-przymorze-78-m.jpg,2012,wtórny,Co Miejskie,16,1,0,0,1,0,0,1,0,0,54.4096481,18.5959574,4998.73,5009.99,,5009.74,5006.29,
Gdańsk,Oliwska,499000,48.0,2,1.0,https://www.morizon.pl/oferta/sprzedaz-mieszkanie-gdansk-nowy-port-oliwska-48m2-mzn2046152775,https://img1.staticmorizon.com.pl/thumb/aHR0cDovL21lZGlhLmRvbXkucGwvaW1nL3pkamVjaWEvYXJ0ZmxhdC9lL2FydGZsYXRfbXNfMjUzODM5XzEuanBnI3Y9MV8zNzk4NzUxOTEx/3x2_xs:fill_and_crop/mieszkanie-na-sprzedaz-gdansk-nowy-port-48-m.jpg,1959,wtórny,Co Miejskie,3,1,1,0,0,0,0,1,0,0,54.4010258,18.6762146,4990.51,5001.78,,5001.53,4998.08,
Gdańsk,Aleja Jana Pawła II,849000,49.0,2,1.0,https://www.morizon.pl/oferta/sprzedaz-mieszkanie-gdansk-zaspa-aleja-jana-pawla-ii-49m2-mzn2046226422,https://img1.staticmorizon.com.pl/thumb/aHR0cDovL21lZGlhLmRvbXkucGwvaW1nL3pkamVjaWEvYm5taW8vZS9ibm1pb19tc181NjY3MzhfMS5qcGcjdj0xXzM3OTU4Nzk2NzE=/3x2_xs:fill_and_crop/mieszkanie-na-sprzedaz-gdansk-zaspa-49-m.jpg,2003,wtórny,Co Miejskie,4,1,1,0,1,0,0,1,0,0,54.3906058,18.5987074,4997.49,5008.75,,5008.5,5005.06,
Gdańsk,Starowiejska,899000,45.0,2,1.0,https://www.morizon.pl/oferta/sprzedaz-mieszkanie-gdansk-letnica-starowiejska-45m2-mzn2046142757,https://img1.staticmorizon.com.pl/thumb/aHR0cDovL21lZGlhLmRvbXkucGwvaW1nL3pkamVjaWEvYm5taW8vNC9ibm1pb19tc18xMjUwMTNfMS5qcGcjdj0xXzM3OTMzNjcwOTA=/3x2_xs:fill_and_crop/mieszkanie-na-sprzedaz-gdansk-letnica-45-m.jpg,2023,wtórny,Co Miejskie,4,1,0,0,1,1,0,1,0,0,54.4010982,18.6498059,4993.08,5004.34,,5004.09,5000.64,
Gdańsk,Jaglana,444769,22.0,1,4.0,https://www.morizon.pl/oferta/sprzedaz-mieszkanie-gdansk-srodmiescie-jaglana-22m2-mzn2046122262,https://img1.staticmorizon.com.pl/thumb/aHR0cDovL21lZGlhLmRvbXkucGwvaW1nL3pkamVjaWEvbzEyMzQ4NS8yL28xMjM0ODVfbXNfRUM3ODI0MzBfMS5qcGcjdj0xXzM3OTU3NjEwMDk=/3x2_xs:fill_and_crop/kawalerka-na-sprzedaz-gdansk-srodmiescie-22-m.jpg,2016,wtórny,-1,10,0,0,0,1,0,0,1,0,0,54.34406,18.65675,4989.49,5000.75,,5000.5,4997.06,
Gdańsk,Jaglana,781050,39.0,2,1.0,https://www.morizon.pl/oferta/sprzedaz-mieszkanie-gdansk-srodmiescie-jaglana-39m2-mzn2046178024,https://img1.staticmorizon.com.pl/thumb/aHR0cDovL21lZGlhLmRvbXkucGwvaW1nL3pkamVjaWEvbzEyMzQ4NS9hL28xMjM0ODVfbXNfRUMxMTYwNjZfMS5qcGcjdj0xXzM3OTMzNjY0Njc=/3x2_xs:fill_and_crop/mieszkanie-na-sprzedaz-gdansk-srodmiescie-39-m.jpg,2017,wtórny,-1,6,0,0,0,1,0,0,0,0,0,54.34337,18.65663,4989.47,5000.73,,5000.48,4997.04,
Gdańsk,Juliusza Słowackiego,480000,29.0,1,3.0,https://www.morizon.pl/oferta/sprzedaz-mieszkanie-gdansk-wrzeszcz-juliusza-slowackiego-29m2-mzn2045954109,https://img1.staticmorizon.com.pl/thumb/aHR0cDovL21lZGlhLmRvbXkucGwvaW1nL3pkamVjaWEvYm5ob21lLzgvYm5ob21lX21zXzUzNTAzNF8xLmpwZyN2PTFfMzgwMDEyOTg0Mg==/3x2_xs:fill_and_crop/kawalerka-na-sprzedaz-gdansk-wrzeszcz-29-m.jpg,-1,wtórny,Co Miejskie,3,1,1,0,1,0,0,1,0,0,54.3801356,18.5843371,4998.35,5009.61,,5009.36,5005.92,
Gdańsk,Słabego,650000,48.0,2,1.0,https://www.morizon.pl/oferta/sprzedaz-mieszkanie-gdansk-matarnia-mjr-mieczyslawa-slabego-48m2-mzn2044766393,https://img1.staticmorizon.com.pl/thumb/aHR0cDovL21lZGlhLmRvbXkucGwvaW1nL3pkamVjaWEvbzEyMzQ4NS9kL28xMjM0ODVfbXNfRUMxNTY5MDFfMS5qcGcjdj0xXzM4MDMwNTUyODE=/3x2_xs:fill_and_crop/mieszkanie-na-sprzedaz-gdansk-matarnia-48-m.jpg,2018,wtórny,Co Miejskie,5,1,0,1,1,0,1,1,0,0,54.37166,18.52597,5003.57,5014.83,,5014.59,5011.14,
Gdańsk,Jaglana,722256,36.0,2,6.0,https://www.morizon.pl/oferta/sprzedaz-mieszkanie-gdansk-srodmiescie-jaglana-36m2-mzn2045212350,https://img1.staticmorizon.com.pl/thumb/aHR0cDovL21lZGlhLmRvbXkucGwvaW1nL3pkamVjaWEvbzEyMzQ4NS9kL28xMjM0ODVfbXNfRUM0MzM2NzVfMS5qcGcjdj0xXzM3OTU3NjA5ODM=/3x2_xs:fill_and_crop/mieszkanie-na-sprzedaz-gdansk-srodmiescie-36-m.jpg,2016,wtórny,-1,10,0,0,0,1,0,0,1,0,0,54.34406,18.65675,4989.49,5000.75,,5000.5,4997.06,
Gdańsk,Aleja Jana Pawła II,1099000,49.0,2,7.0,https://www.morizon.pl/oferta/sprzedaz-mieszkanie-gdansk-zaspa-aleja-jana-pawla-ii-49m2-mzn2045850362,https://img1.staticmorizon.com.pl/thumb/aHR0cDovL21lZGlhLmRvbXkucGwvaW1nL3pkamVjaWEvcG4zL2IvcG4zX21zXzY4NSUyNTJGMzA3MSUyNTJGT01TXzEuanBnI3Y9MV8zNzQxMDUyMjQ4/3x2_xs:fill_and_crop/mieszkanie-na-sprzedaz-gdansk-zaspa-49-m.jpg,2015,wtórny,C.O. Z SIECI MIEJSKIEJ,11,0,1,0,1,1,0,1,0,0,54.4000315,18.6048613,4997.38,5008.64,,5008.39,5004.94,
Gdańsk,Sienna Grobla,1600000,77.0,3,3.0,https://www.morizon.pl/oferta/sprzedaz-mieszkanie-gdansk-srodmiescie-sienna-grobla-77m2-mzn2044499412,https://img1.staticmorizon.com.pl/thumb/aHR0cDovL21lZGlhLmRvbXkucGwvaW1nL3pkamVjaWEvamF0Y3phay8wL2phdGN6YWtfbXNfSkowMjU3Nl8xLmpwZyN2PTFfMzgwODgzNTc4Nw==/3x2_xs:fill_and_crop/mieszkanie-na-sprzedaz-gdansk-srodmiescie-77-m.jpg,2024,wtórny,C.o. miejskie,4,1,1,0,1,1,1,0,1,0,54.356569,18.667013,4989.14,5000.4,,5000.15,4996.7,
Gdańsk,Hokejowa,469000,30.0,2,3.0,https://www.morizon.pl/oferta/sprzedaz-mieszkanie-gdansk-ujescisko-lostowice-hokejowa-30m2-mzn2046168726,https://img1.staticmorizon.com.pl/thumb/aHR0cDovL21lZGlhLmRvbXkucGwvaW1nL3pkamVjaWEvYmJyb2tlci85L2Jicm9rZXJfbXNfODMzNjM2XzAuanBnI3Y9MV8zNzgyODA2OTAw/3x2_xs:fill_and_crop/mieszkanie-na-sprzedaz-gdansk-ujescisko-lostowice-30-m.jpg,2007,wtórny,Miejskie,3,0,1,1,1,1,0,1,0,0,54.3097446,18.5893527,4994.27,5005.53,,5005.29,5001.84,
Gdańsk,Krzysztofa Kamila Baczyńskiego,799000,73.0,4,2.0,https://www.morizon.pl/oferta/sprzedaz-mieszkanie-pomorskie-gdansk-baczynskiego-73m2-mzn2046234640,https://img1.staticmorizon.com.pl/thumb/aHR0cDovL21lZGlhLmRvbXkucGwvaW1nL3pkamVjaWEvYWxsZWdyb3ByeS9iL2FsbGVncm9wcnlfbXNfMTA4NjM2NzU5OV8xLmpwZyN2PTFfMzc5ODI2NjE4Mw==/3x2_xs:fill_and_crop/mieszkanie-na-sprzedaz-gdansk-baczynskiego-73-m.jpg,1991,wtórny,-1,10,0,1,0,1,0,1,0,0,0,54.3897455,18.6232948,4995.06,5006.32,,5006.08,5002.63,
Gdańsk,Konrada Korzeniowskiego,859000,70.0,4,1.0,https://www.morizon.pl/oferta/sprzedaz-mieszkanie-pomorskie-gdansk-korzeniowskiego-70m2-mzn2046204318,https://img1.staticmorizon.com.pl/thumb/aHR0cDovL21lZGlhLmRvbXkucGwvaW1nL3pkamVjaWEvYWxsZWdyb3ByeS9kL2FsbGVncm9wcnlfbXNfMTA4NjI0MjA5OF8xLmpwZyN2PTFfMzc5MTQ2MTMyNg==/3x2_xs:fill_and_crop/mieszkanie-na-sprzedaz-gdansk-korzeniowskiego-70-m.jpg,-1,wtórny,-1,2,0,1,1,0,0,0,0,0,0,54.40669956,18.63518338,4994.78,5006.04,,5005.79,5002.34,
Gdańsk,Prezydenta Lecha Kaczyńskiego,680000,43.0,2,2.0,https://www.morizon.pl/oferta/sprzedaz-mieszkanie-gdansk-przymorze-prezydenta-lecha-kaczynskiego-43m2-mzn2046184614,https://img1.staticmorizon.com.pl/thumb/aHR0cDovL21lZGlhLmRvbXkucGwvaW1nL3pkamVjaWEvYmJyb2tlci9mL2Jicm9rZXJfbXNfODMzNjkxXzAuanBnI3Y9MV8zNzg2NjEyOTc0/3x2_xs:fill_and_crop/mieszkanie-na-sprzedaz-gdansk-przymorze-43-m.jpg,1970,wtórny,Miejskie,4,0,1,1,0,0,0,1,0,0,54.416667,18.583333,5000.31,5011.57,,5011.32,5007.88,
Gdańsk,Pilotów,515000,31.0,1,10.0,https://www.morizon.pl/oferta/sprzedaz-mieszkanie-gdansk-zaspa-pilotow-31m2-mzn2045878341,https://img1.staticmorizon.com.pl/thumb/aHR0cDovL21lZGlhLmRvbXkucGwvaW1nL3pkamVjaWEvbzEzNzQ3NC9jL28xMzc0NzRfbXNfMTUwNDc2XzEuanBnI3Y9MV8zNzg3NTU5MzQ5/3x2_xs:fill_and_crop/kawalerka-na-sprzedaz-gdansk-zaspa-31-m.jpg,1970,wtórny,-1,10,0,1,0,1,1,0,1,0,0,54.3942911,18.5893124,4998.59,5009.85,,5009.6,5006.16,
Gdańsk,Hołdu Pruskiego,750000,54.0,3,0.0,https://www.morizon.pl/oferta/sprzedaz-mieszkanie-gdansk-oliwa-holdu-pruskiego-54m2-mzn2046081191,https://img1.staticmorizon.com.pl/thumb/aHR0cDovL21lZGlhLmRvbXkucGwvaW1nL3pkamVjaWEvZzg3OTI3L2EvZzg3OTI3X21zX0dXMjgxOTUzXzEuanBnI3Y9MV8zNzk4NzUyMDUx/3x2_xs:fill_and_crop/mieszkanie-na-sprzedaz-gdansk-oliwa-54-m.jpg,1890,wtórny,Gazowe,2,1,1,0,0,1,0,0,0,1,54.4106045,18.5701735,5001.28,5012.54,,5012.29,5008.84,
Gdańsk,Michała Ogińskiego,699000,66.0,4,10.0,https://www.morizon.pl/oferta/sprzedaz-mieszkanie-gdansk-siedlce-michala-oginskiego-66m2-mzn2046068281,https://img1.staticmorizon.com.pl/thumb/aHR0cDovL21lZGlhLmRvbXkucGwvaW1nL3pkamVjaWEvNDB6YTQwLzYvNDB6YTQwX21zX1BPOTQ1Ny0yXzEuanBnI3Y9MV8zODAyNDU4NzYy/3x2_xs:fill_and_crop/mieszkanie-na-sprzedaz-gdansk-siedlce-66-m.jpg,1970,wtórny,C.o z sieci miejskiej,10,0,1,0,1,0,0,1,0,0,54.34794,18.6126266,4993.97,5005.22,,5004.98,5001.53,
Gdańsk,Gdańsk,265000,55.0,3,1.0,https://www.morizon.pl/oferta/sprzedaz-mieszkanie-pomorskie-gdansk-55m2-mzn2046210223,https://img1.staticmorizon.com.pl/thumb/aHR0cDovL21lZGlhLmRvbXkucGwvaW1nL3pkamVjaWEvYmFybm5ldC9lL2Jhcm5uZXRfbXNfMzcxMDZfMC5qcGcjdj0yXzM3OTQ2ODA0MDc=/3x2_xs:fill_and_crop/mieszkanie-na-sprzedaz-gdansk-55-m.jpg,-1,wtórny,Własne gazowe,2,0,0,0,0,1,0,1,0,0,54.3520252,18.6466384,4990.88,5002.14,,5001.89,4998.44,
Gdańsk,Joachima Lelewela,660000,48.0,2,1.0,https://www.morizon.pl/oferta/sprzedaz-mieszkanie-gdansk-wrzeszcz-lelewela-48m2-mzn2046137586,https://img1.staticmorizon.com.pl/thumb/aHR0cDovL21lZGlhLmRvbXkucGwvaW1nL3pkamVjaWEvYmFybm5ldC8wL2Jhcm5uZXRfbXNfMzY3MTNfMC5qcGcjdj0xXzM3NzQyNDEzNzk=/3x2_xs:fill_and_crop/mieszkanie-na-sprzedaz-gdansk-wrzeszcz-48-m.jpg,-1,wtórny,Miejskie,8,0,1,0,0,1,0,1,0,0,54.3836916,18.6111,4995.94,5007.2,,5006.95,5003.5,
Gdańsk,Jabłoniowa,769000,63.0,3,5.0,https://www.morizon.pl/oferta/sprzedaz-mieszkanie-gdansk-jasien-jabloniowa-63m2-mzn2046246429,https://img1.staticmorizon.com.pl/thumb/aHR0cDovL21lZGlhLmRvbXkucGwvaW1nL3pkamVjaWEvYmJyb2tlci8wL2Jicm9rZXJfbXNfODMzODQ4XzAuanBnI3Y9MV8zODA3OTA2NTUw/3x2_xs:fill_and_crop/mieszkanie-na-sprzedaz-gdansk-jasien-63-m.jpg,2012,wtórny,Miejskie,5,0,0,0,0,1,0,1,0,0,54.3295818,18.5542556,4998.69,5009.94,,5009.7,5006.26,
Gdańsk,Piastowska,650000,38.0,2,1.0,https://www.morizon.pl/oferta/sprzedaz-mieszkanie-gdansk-przymorze-piastowska-38m2-mzn2046162653,https://img1.staticmorizon.com.pl/thumb/aHR0cDovL21lZGlhLmRvbXkucGwvaW1nL3pkamVjaWEvYW1rLzkvYW1rX21zXzExNTk3JTI1MkYzMTg2JTI1MkZPTVNfMS5qcGcjdj0xXzM3OTQ2NzM4Mzc=/3x2_xs:fill_and_crop/mieszkanie-na-sprzedaz-gdansk-przymorze-38-m.jpg,1974,wtórny,-1,11,0,1,0,1,0,0,0,0,0,54.41624648,18.58960152,4999.68,5010.94,,5010.69,5007.25,
Gdańsk,Bażantowa,1050000,74.0,3,2.0,https://www.morizon.pl/oferta/sprzedaz-mieszkanie-gdansk-jasien-bazantowa-74m2-mzn2046172040,https://img1.staticmorizon.com.pl/thumb/aHR0cDovL21lZGlhLmRvbXkucGwvaW1nL3pkamVjaWEvYmJyb2tlci9jL2Jicm9rZXJfbXNfODMzNjc3XzAuanBnI3Y9MV8zNzg0MDM5MTE4/3x2_xs:fill_and_crop/mieszkanie-na-sprzedaz-gdansk-jasien-74-m.jpg,2015,wtórny,Miejskie,2,0,1,0,1,1,0,1,0,0,54.3474772,18.55299,4999.72,5010.97,,5010.74,5007.29,
Gdańsk,Piecki-Migowo,688950,71.0,3,0.0,https://www.morizon.pl/oferta/sprzedaz-mieszkanie-gdansk-piecki-migowo-71m2-mzn2046253539,https://img1.staticmorizon.com.pl/thumb/aHR0cDovL21lZGlhLmRvbXkucGwvaW1nL3pkamVjaWEvYmFybm5ldC8xL2Jhcm5uZXRfbXNfMzcxODBfMC5qcGcjdj0xXzM4MDg2NjMwMTU=/3x2_xs:fill_and_crop/mieszkanie-na-sprzedaz-gdansk-piecki-migowo-71-m.jpg,-1,wtórny,Własne dla budynku,5,0,0,0,0,0,0,0,0,0,54.3575975,18.5786542,4997.75,5009.01,,5008.76,5005.32,
